PROJECT_ID,PROJECT_NAME,P2_NUMBER,P2_SUB_IDENTIFIER,P2_PROGRAM_CODE,CAP,USACE_ORGANIZATION,DISTRICT_CODE,PROGRAMTYPEID,PROGRAMTYPENAME,PROGRAMTYPECODE,PRIMARYMISSIONID,PRIMARYMISSION,STUDYTYPEID,STUDYTYPENAME,PROJECT_LATITUDE,PROJECT_LONGITUDE,LIFECYCLEPHASEID,LIFECYCLEPHASENAME,LIFECYCLEPHASEBUDGET,LIFECYCLESTARTDATE,LIFECYCLEENDDATE,EDITDATE,ORG_ORDER,PROG_TYPE_ORDER,PRIM_MISSION_ORDER
115,Ala Wai Canal GRR,498213,NA,NA,NA,Pittsburgh District(LRP),LRP,1,Civil Works,cw,1,Inland Flood Risk Management,NA,NA,21.285691999999997,-157.821111,NA,NA,NA,NA,NA,8/23/2021 10:12 AM,7,1,1
147,Coastal Texas,145745,NA,NA,NA,Galveston District(SWG),SWG,1,Civil Works,cw,4,Coastal Storm Risk Management,NA,NA,28.458651999999997,-96.29627,NA,NA,NA,NA,NA,1/17/2023 5:11 PM,36,1,4
160,EAST SAN PEDRO BAY,328345,NA,NA,NA,Los Angeles District(SPL),SPL,1,Civil Works,cw,6,Aquatic Ecosystem Restoration,NA,NA,33.738462999999996,-118.159296,NA,NA,NA,NA,NA,1/17/2023 5:12 PM,33,1,6
235,"PECKMAN RIVER BASIN, NJ",109001,NA,013759,no,New York District(NAN),NAN,1,Civil Works,cw,6,Aquatic Ecosystem Restoration,NA,NA,40.885169,-74.217917,5,Pre-Construction Engineering and Design (PED),6800000,2023-01-20T05:00:00Z,2026-03-25T05:00:00Z,1/19/2024,16,1,6
502,LOWER CACHE CREEK,105216,NA,NA,NA,Sacramento District(SPK),SPK,1,Civil Works,cw,1,Inland Flood Risk Management,NA,NA,38.761635,-122.109453,NA,NA,NA,NA,NA,1/17/2023 5:11 PM,32,1,1
1241,Lake Okeechobee Watershed,114447,NA,NA,no,Jacksonville District(SAJ),SAJ,1,Civil Works,cw,6,Aquatic Ecosystem Restoration,NA,NA,27.165913,-80.859375,4,Planning,9472000,2016-07-01T05:00:00Z,2022-07-24T05:00:00Z,8/3/2023,27,1,6
1584,"Arcadia, WI Section 205 Project",403427,NA,NA,NA,St. Paul District(MVP),MVP,1,Civil Works,cw,1,Inland Flood Risk Management,2,CAP Decision Document,44.2485,-91.4935,NA,NA,NA,NA,NA,1/11/2022 1:37 PM,11,1,1
1664,C&SF: CERP: Western Everglades Restoration Project,456218,NA,NA,no,Jacksonville District(SAJ),SAJ,1,Civil Works,cw,6,Aquatic Ecosystem Restoration,1,General Investigations Feasibility,26.159768999999997,-80.892392,4,Planning,7900000,2016-08-16T05:00:00Z,2023-12-18T05:00:00Z,7/18/2023 9:24 AM,27,1,6
1725,"New York, New Jersey Harbor and Tributaries Study",404586,NA,NA,no,New York District(NAN),NAN,1,Civil Works,cw,4,Coastal Storm Risk Management,NA,NA,40.579885999999995,-74.028969,4,Planning,10000000,2016-09-01T05:00:00Z,2025-08-01T05:00:00Z,7/23/2024 1:26 PM,16,1,4
1824,Nassau County Back Bays Feasibility Study,404587,NA,NA,NA,Philadelphia District(NAP),NAP,1,Civil Works,cw,4,Coastal Storm Risk Management,NA,NA,40.633889,73.561944,NA,NA,NA,NA,NA,1/12/2024 6:36 PM,18,1,4
1844,"Fairfield & New Haven Counties, CT Flooding",395890,NA,NA,yes,New England District(NAE),NAE,1,Civil Works,cw,4,Coastal Storm Risk Management,NA,NA,41.208203,-73.071287,2,CAP Design and Construction,160249000,2023-10-02T05:00:00Z,2026-10-02T05:00:00Z,10/23/2023,15,1,4
2065,MIAMI HARBOR IMPROVEMENTS,472379,NA,NA,no,Jacksonville District(SAJ),SAJ,1,Civil Works,cw,2,Deep Draft Navigation,NA,NA,25.762553,-80.13221,4,Planning,7480000,2018-09-04T05:00:00Z,2026-06-26T05:00:00Z,8/31/2023,27,1,2
2105,"Tacoma Harbor, WA",465354,NA,NA,NA,Seattle District(NWS),NWS,1,Civil Works,cw,2,Deep Draft Navigation,NA,NA,47.273306,-122.425015,NA,NA,NA,NA,NA,1/17/2023 5:11 PM,22,1,2
2125,Pinellas County CSRM FS,474971,NA,NA,NA,Jacksonville District(SAJ),SAJ,1,Civil Works,cw,4,Coastal Storm Risk Management,NA,NA,27.937785,-82.725653,NA,NA,NA,NA,NA,7/28/2021 1:27 PM,27,1,4
2126,Amite River and Tributaries - East of the MS River Analysis,464542,NA,NA,no,New Orleans District(MVN),MVN,1,Civil Works,cw,1,Inland Flood Risk Management,NA,NA,30.343112,-90.945627,4,Planning,4910000,2018-10-03T05:00:00Z,2025-02-20T05:00:00Z,9/18/2024,10,1,1
2128,"San Juan Metro Area, Puerto Rico CSRM",469423,NA,NA,NA,Jacksonville District(SAJ),SAJ,1,Civil Works,cw,4,Coastal Storm Risk Management,NA,NA,18.530639999999998,-66.11678599999999,NA,NA,NA,NA,NA,8/20/2021 1:58 PM,27,1,4
2146,WBV Future Levee Lifts,452003,NA,NA,NA,New Orleans District(MVN),MVN,1,Civil Works,cw,4,Coastal Storm Risk Management,NA,NA,NA,NA,NA,NA,NA,NA,NA,1/17/2023 5:12 PM,10,1,4
2147,"Metro Louisville, KY Flood Protection System",145626,NA,NA,no,Louisville District(LRL),LRL,1,Civil Works,cw,1,Inland Flood Risk Management,NA,NA,38.275749999999995,-85.790171,5,Pre-Construction Engineering and Design (PED),10000000,2023-07-01T05:00:00Z,2025-01-30T05:00:00Z,1/22/2024,5,1,1
2226,Rahway Tidal,403353,NA,NA,NA,New York District(NAN),NAN,1,Civil Works,cw,4,Coastal Storm Risk Management,NA,NA,40.598887999999995,-74.248846,NA,NA,NA,NA,NA,12/8/2023 2:10 PM,16,1,4
2305,Collier CSRM,476674,NA,NA,NA,Norfolk District(NAO),NAO,1,Civil Works,cw,4,Coastal Storm Risk Management,NA,NA,25.939251,-81.715851,NA,NA,NA,NA,NA,3/31/2021 7:59 PM,17,1,4
2306,FL Keys CSRM,397427,NA,NA,NA,Norfolk District(NAO),NAO,1,Civil Works,cw,4,Coastal Storm Risk Management,NA,NA,24.819858999999997,-80.821732,NA,NA,NA,NA,NA,9/20/2021 3:37 PM,17,1,4
2307,"Miami-Dade Back Bay Coastal Storm Risk Management Feasibility Study, Miami-Dade County, Florida",476677,NA,NA,no,Norfolk District(NAO),NAO,1,Civil Works,cw,4,Coastal Storm Risk Management,1,General Investigations Feasibility,25.74449,-80.18136,4,Planning,8500000,2018-10-01T05:00:00Z,2027-08-31T05:00:00Z,7/2/2024 7:43 PM,17,1,4
2325,TPP Clear Creek Ecosystem Restoration Study,478609,NA,NA,NA,Sacramento District(SPK),SPK,1,Civil Works,cw,6,Aquatic Ecosystem Restoration,NA,NA,39.711428,-121.745939,NA,NA,NA,NA,NA,2/5/2021,32,1,6
2465,SACS,463746,NA,NA,NA,Jacksonville District(SAJ),SAJ,1,Civil Works,cw,9,Watershed Studies,NA,NA,90.5565,-120.564,NA,NA,NA,NA,NA,10/7/2021 3:53 PM,27,1,9
2545,Rhode Island Coastline CSRM,404574,NA,NA,NA,New England District(NAE),NAE,1,Civil Works,cw,4,Coastal Storm Risk Management,NA,NA,41.35,71.2,NA,NA,NA,NA,NA,9/23/2022 7:27 PM,15,1,4
2566,NoVA Coastal,404563,NA,NA,NA,Baltimore District(NAB),NAB,1,Civil Works,cw,4,Coastal Storm Risk Management,NA,NA,NA,NA,NA,NA,NA,NA,NA,4/4/2024 1:58 PM,14,1,4
2605,New York New Jersey Harbor Deepening Channel Improvements,472473,NA,NA,NA,New York District(NAN),NAN,1,Civil Works,cw,2,Deep Draft Navigation,NA,NA,40.653242,-74.08080000000001,NA,NA,NA,NA,NA,12/8/2023 2:10 PM,16,1,2
2625,Kansas River Reservoirs Flood and Sediment Study,137499,NA,NA,no,Kansas City District(NWK),NWK,1,Civil Works,cw,9,Watershed Studies,NA,NA,38.60077,-94.4491,3,Planning,3000000,2019-03-25T05:00:00Z,2024-05-25T05:00:00Z,8/10/2023,19,1,9
2645,South San Francisco Bay Shoreline Phase II Study,402882,NA,NA,NA,San Francisco District(SPN),SPN,1,Civil Works,cw,4,Coastal Storm Risk Management,NA,NA,NA,NA,NA,NA,NA,NA,NA,5/12/2022 4:39 PM,34,1,4
2685,"St. Tammany Parish, Louisiana Feasibility Study",477554,NA,NA,NA,New Orleans District(MVN),MVN,1,Civil Works,cw,1,Inland Flood Risk Management,NA,NA,48.166668,-109.650776,NA,NA,NA,NA,NA,7/6/2022 3:11 PM,10,1,1
2785,"UMRR Yorkinut Slough, IL - FWS",472174,NA,472174,yes,St. Louis District(MVS),MVS,1,Civil Works,cw,6,Aquatic Ecosystem Restoration,NA,NA,38.933,-90.527,1,CAP Feasibility,0,2022-08-01T05:00:00Z,2022-11-30T05:00:00Z,4/28/2023,13,1,6
2805,University City,490029,NA,NA,NA,St. Louis District(MVS),MVS,1,Civil Works,cw,1,Inland Flood Risk Management,NA,NA,38.663901,-90.328165,NA,NA,NA,NA,NA,8/26/2022 9:21 PM,13,1,1
2826,SELA LONDON ORLEANS,NA,NA,NA,no,New Orleans District(MVN),MVN,1,Civil Works,cw,1,Inland Flood Risk Management,NA,NA,29.091181,-90.090497,7,Operations and Maintenance,0,NA,NA,3/20/2023,10,1,1
2846,"Wrightsville Beach, NC Coastal Storm Risk Mitigation Feasibility Study",483210,NA,NA,NA,Wilmington District(SAW),SAW,1,Civil Works,cw,4,Coastal Storm Risk Management,NA,NA,34.209471,-77.796571,NA,NA,NA,NA,NA,11/4/2021 12:55 PM,30,1,4
2847,Biscayne Bay & Southeastern Everglades Ecosystem Restoration,480417,NA,NA,no,Jacksonville District(SAJ),SAJ,1,Civil Works,cw,6,Aquatic Ecosystem Restoration,NA,NA,25.4,-80.4,4,Planning,4750000,2020-07-01T05:00:00Z,2025-12-31T05:00:00Z,8/23/2023,27,1,6
2866,Oakland Harbor Turning Basins Widening Study,476976,NA,NA,no,San Francisco District(SPN),SPN,1,Civil Works,cw,2,Deep Draft Navigation,NA,NA,37.802819,-122.333611,4,Planning,4000000,2020-07-02T05:00:00Z,2024-05-31T05:00:00Z,5/23/2024,34,1,2
2888,"BALTIMORE HARBOR ANCHORAGES AND CHANNELS MODIFICATION OF SEAGIRT LOOP CHANNELS, MARYLAND FEASIBILITY STUDY",466610,NA,NA,NA,Baltimore District(NAB),NAB,1,Civil Works,cw,2,Deep Draft Navigation,NA,NA,39.253089,-76.546678,NA,NA,NA,NA,NA,7/6/2022 1:41 PM,14,1,2
2906,Pacific Territories Watershed Assessment ? American Samoa,480955,NA,NA,NA,Honolulu District(POH),POH,1,Civil Works,cw,9,Watershed Studies,10,Other,14.271,-170.1322,NA,NA,NA,NA,NA,12/6/2021 9:25 PM,25,1,9
2907,Pacific Territories Watershed Assessment ? Guam,487232,NA,NA,NA,Honolulu District(POH),POH,1,Civil Works,cw,9,Watershed Studies,10,Other,13.4443,144.7937,NA,NA,NA,NA,NA,11/24/2021 7:24 PM,25,1,9
2908,Pacific Territories Watershed Assessment ? Commonwealth of the Northern Mariana Islands (CNMI),487231,NA,NA,NA,Honolulu District(POH),POH,1,Civil Works,cw,9,Watershed Studies,10,Other,15.185,145.7467,NA,NA,NA,NA,NA,3/23/2022 8:41 PM,25,1,9
4055,North Lansing Dam CAP 206,503819,NA,503819,yes,Detroit District(LRE),LRE,1,Civil Works,cw,6,Aquatic Ecosystem Restoration,2,CAP Decision Document,42.74566,-84.54979,1,CAP Feasibility,1,2023-05-01T05:00:00Z,2025-05-01T05:00:00Z,8/10/2023,3,1,6
4071,DRSAA 22 Tangipahoa Parish FRM,505300,NA,497446,no,St. Louis District(MVS),MVS,1,Civil Works,cw,1,Inland Flood Risk Management,1,General Investigations Feasibility,30.7262,-90.50846,4,Planning,3480000,2022-12-08T05:00:00Z,2026-07-17T05:00:00Z,8/21/2023 8:28 AM,13,1,1
4072,Lower Mud,113528,NA,NA,no,Huntington District(LRH),LRH,1,Civil Works,cw,1,Inland Flood Risk Management,10,Other,38.434532,-82.132364,5,Pre-Construction Engineering and Design (PED),150000000,2006-01-01T05:00:00Z,2026-12-31T05:00:00Z,7/17/2024,4,1,1
4073,"Lower Rio Grande Valley Watershed Assessment, TX",514236,NA,NA,no,Galveston District(SWG),SWG,1,Civil Works,cw,9,Watershed Studies,7,Watershed Study,26.18255,-97.7124,3,Planning,3000000,2022-12-12T05:00:00Z,2027-12-12T05:00:00Z,8/15/2023,36,1,9
4074,Sabine to Galveston (S2G) - Orange ? PED,492048,NA,NA,no,Galveston District(SWG),SWG,1,Civil Works,cw,4,Coastal Storm Risk Management,5,Validation,30.08959,-93.74496,5,Pre-Construction Engineering and Design (PED),490074000,2018-10-10T05:00:00Z,2027-05-17T05:00:00Z,8/21/2024,36,1,4
4091,TEST PROJM,NA,NA,870000,no,Charleston District(SAC),SAC,1,Civil Works,cw,4,Coastal Storm Risk Management,1,General Investigations Feasibility,32.89189,-79.44309,7,Operations and Maintenance,1580000,NA,NA,8/21/2023,26,1,4
4092,Iowa Army Ammunition Plant (IAAAP),115401,NA,NA,no,St. Louis District(MVS),MVS,5,Environmental,env,122,Environmental (ENV),NA,NA,40.822462,-91.256785,27,NA,17500000,2023-10-02T05:00:00Z,2025-09-30T05:00:00Z,8/21/2023,13,5,122
4111,Pond Creek Water Extension Project,514090,NA,NA,no,Huntington District(LRH),LRH,1,Civil Works,cw,117,Other,NA,NA,39.06584,-81.64023,4,Planning,13250,2023-06-26T05:00:00Z,2024-01-11T05:00:00Z,8/23/2023,4,1,117
4112,Greenbrier County Phase II Waterline Extension Project,514089,NA,NA,no,Huntington District(LRH),LRH,1,Civil Works,cw,117,Other,NA,NA,37.90011,-80.63108,4,Planning,13250,2023-06-20T05:00:00Z,2024-02-08T05:00:00Z,8/23/2023,4,1,117
4113,Wappapello Dam - Dam Safety Modification Study,496428,NA,NA,no,St. Louis District(MVS),MVS,1,Civil Works,cw,1,Inland Flood Risk Management,10,Other,36.930679999999995,-90.28152,4,Planning,1500000,2023-04-17T05:00:00Z,2024-10-18T05:00:00Z,8/23/2023,13,1,1
4131,Matagorda ship Channel Improvements,NA,NA,NA,no,Galveston District(SWG),SWG,1,Civil Works,cw,2,Deep Draft Navigation,9,Limited Re-evaluation,28.54142,-96.48597,4,Planning,1,2023-07-03T05:00:00Z,2025-08-22T05:00:00Z,8/28/2023,36,1,2
4132,Sarvis Fork Waterline Extension Project,514342,NA,014183,no,Huntington District(LRH),LRH,1,Civil Works,cw,117,Other,10,Other,38.9223,-81.6472,6,Construction,779000,2024-12-31T05:00:00Z,2027-05-18T05:00:00Z,9/23/2024,4,1,117
4133,S2G Port Arthur PACR,488779,NA,NA,no,Galveston District(SWG),SWG,1,Civil Works,cw,4,Coastal Storm Risk Management,5,Validation,29.8397,-93.96183,5,Pre-Construction Engineering and Design (PED),1902000,2023-08-01T05:00:00Z,2025-08-05T05:00:00Z,7/10/2024,36,1,4
4134,Sabine Pass to Galveston Bay Freeport,492290,NA,NA,no,Galveston District(SWG),SWG,1,Civil Works,cw,4,Coastal Storm Risk Management,5,Validation,28.93886,-95.32575,5,Pre-Construction Engineering and Design (PED),1,2025-06-02T05:00:00Z,2025-06-03T05:00:00Z,9/6/2023,36,1,4
4135,Lee County Conservation Board CAP Sec 204,496169,NA,496169,yes,Rock Island District(MVR),MVR,1,Civil Works,cw,6,Aquatic Ecosystem Restoration,2,CAP Decision Document,40.57557,-91.39956,1,CAP Feasibility,550000,2022-02-11T05:00:00Z,2024-12-31T05:00:00Z,9/1/2023,12,1,6
4151,"Norfolk Harbor, VA, Anchorage F Limited Reevaluation Report",513657,NA,NA,no,Norfolk District(NAO),NAO,1,Civil Works,cw,2,Deep Draft Navigation,9,Limited Re-evaluation,36.96063,-76.34440000000001,4,Planning,2000000,2023-09-11T05:00:00Z,2025-09-11T05:00:00Z,9/5/2023,17,1,2
4152,TEST234,000458,NA,000458,yes,Baltimore District(NAB),NAB,1,Civil Works,cw,6,Aquatic Ecosystem Restoration,NA,NA,38.29569,-76.10422,2,CAP Design and Construction,4580000,2023-08-01T05:00:00Z,2024-09-30T05:00:00Z,9/5/2023,14,1,6
4153,Clardy Fox,494043,NA,494043,no,Albuquerque District(SPA),SPA,1,Civil Works,cw,117,Other,NA,NA,31.754479999999997,-106.42962,5,Pre-Construction Engineering and Design (PED),400000,2023-04-01T05:00:00Z,2023-10-31T05:00:00Z,9/6/2023 5:17 PM,31,1,117
4154,Conchas lodge Demo/Reno,506192,NA,NA,no,Albuquerque District(SPA),SPA,1,Civil Works,cw,117,Other,10,Other,35.37,-104.17,5,Pre-Construction Engineering and Design (PED),500000,2023-09-06T05:00:00Z,2024-01-31T05:00:00Z,9/6/2023,31,1,117
4155,Buchanan Co Sec 202 Flood Risk Management,112510,NA,NA,no,Huntington District(LRH),LRH,1,Civil Works,cw,117,Other,10,Other,37.19533,-81.91405999999999,6,Construction,235600000,2020-10-01T05:00:00Z,2027-07-16T05:00:00Z,9/6/2023,4,1,117
4156,City of Spencer Water System Improvements Project,514561,NA,NA,no,Huntington District(LRH),LRH,1,Civil Works,cw,117,Other,NA,NA,38.797059999999995,-81.352921,4,Planning,14500,2023-07-05T05:00:00Z,2024-02-22T05:00:00Z,9/6/2023,4,1,117
4157,Northgate Diversion Channel Improvements,497563,NA,497563,no,Albuquerque District(SPA),SPA,1,Civil Works,cw,1,Inland Flood Risk Management,NA,NA,31.86922,-106.45737,5,Pre-Construction Engineering and Design (PED),300000,2023-08-31T05:00:00Z,2024-11-13T05:00:00Z,9/6/2023 11:32 PM,31,1,1
4158,Haleiwa Beneficial Use Pilot Project (Section 1122),474950,NA,NA,yes,Honolulu District(POH),POH,1,Civil Works,cw,4,Coastal Storm Risk Management,2,CAP Decision Document,21.59883,-158.10389,1,CAP Feasibility,550000,2019-06-03T05:00:00Z,2023-12-29T05:00:00Z,9/6/2023,25,1,4
4159,Shoreline III (Sunnyvale),488467,NA,NA,no,San Francisco District(SPN),SPN,1,Civil Works,cw,4,Coastal Storm Risk Management,1,General Investigations Feasibility,37.41258,-122.00781,4,Planning,1,2023-08-28T05:00:00Z,2026-08-27T05:00:00Z,9/18/2024 6:14 PM,34,1,4
4160,TEST MIL PROJECT,111111,NA,NA,no,Far East District(POF),POF,2,Military Program,mp,118,Major Construction,NA,NA,40.73061,-73.935242,11,Closeout,1,2023-09-20T05:00:00Z,2032-09-08T05:00:00Z,9/8/2023,44,2,118
4161,Ala Wai Canal,234567,NA,NA,no,Pittsburgh District(LRP),LRP,1,Civil Works,cw,1,Inland Flood Risk Management,4,General Re-evaluation,21.2831,-157.8264,4,Planning,2793000,2021-06-30T05:00:00Z,2024-06-29T05:00:00Z,9/9/2023,7,1,1
4162,"Raritan Bay and Sandy Hook Bay, NJ Coastal Storm Risk Management Project",506651,NA,NA,no,Norfolk District(NAO),NAO,1,Civil Works,cw,4,Coastal Storm Risk Management,1,General Investigations Feasibility,40.44831,-74.13597,4,Planning,3000000,2022-10-18T05:00:00Z,2028-11-10T05:00:00Z,12/11/2023,17,1,4
4163,Biscayne Bay Coastal Wetlands (BBCW),113846,NA,NA,no,Jacksonville District(SAJ),SAJ,1,Civil Works,cw,6,Aquatic Ecosystem Restoration,NA,NA,25.556379999999997,-80.3274,6,Construction,278212000,2008-01-01T05:00:00Z,2028-01-10T05:00:00Z,9/12/2023,27,1,6
4164,Wilson County PAS,509870,NA,NA,no,Nashville District(LRN),LRN,1,Civil Works,cw,9,Watershed Studies,NA,NA,36.26088,-86.43871,3,Planning,350000,2023-04-03T05:00:00Z,2025-04-03T05:00:00Z,9/12/2023,6,1,9
4165,NESP - Ecosystem Program,NA,NA,010315,no,Rock Island District(MVR),MVR,1,Civil Works,cw,6,Aquatic Ecosystem Restoration,10,Other,41.51629,-90.55309,4,Planning,20000000,2022-10-01T05:00:00Z,2025-03-21T05:00:00Z,10/24/2023,12,1,6
2909,Arroyo Conejo Flood Risk Reduction Study,444695,NA,NA,NA,Los Angeles District(SPL),SPL,1,Civil Works,cw,1,Inland Flood Risk Management,NA,NA,34.183734,-118.936445,NA,NA,NA,NA,NA,1/22/2021 7:48 PM,33,1,1
2929,"CG Upper Guadalupe River, CA",104617,NA,NA,no,San Francisco District(SPN),SPN,1,Civil Works,cw,1,Inland Flood Risk Management,NA,NA,37.288635,-121.880948,4,Planning,1,2024-08-01T05:00:00Z,2024-08-02T05:00:00Z,8/1/2024,34,1,1
2930,"Lower Colma CAP 103, CA",477199,NA,NA,NA,San Francisco District(SPN),SPN,1,Civil Works,cw,4,Coastal Storm Risk Management,2,CAP Decision Document,37.643708,-122.40073,NA,NA,NA,NA,NA,3/31/2022 9:42 PM,34,1,4
2969,Ponte Vedra Beach CSRM,479264,NA,NA,no,Jacksonville District(SAJ),SAJ,1,Civil Works,cw,4,Coastal Storm Risk Management,1,General Investigations Feasibility,30.09999,-81.34140000000001,4,Planning,3000000,2021-04-19T05:00:00Z,2024-04-19T05:00:00Z,8/21/2023 8:28 AM,27,1,4
3009,CAP 107 Nome Harbor Feasibility Study,464170,NA,NA,NA,Alaska District(POA),POA,1,Civil Works,cw,3,Small Boat Harbors,2,CAP Decision Document,64.504074,-165.426779,NA,NA,NA,NA,NA,6/4/2021,24,1,3
3029,Port of Rosedale Expansion - Section 107,472096,NA,NA,NA,Vicksburg District(MVK),MVK,1,Civil Works,cw,16,Inland Navigation,NA,NA,33.818332999999996,-91.020556,NA,NA,NA,NA,NA,10/26/2021 5:22 PM,8,1,16
3069,Tampa Harbor Navigation Improvement Study,499774,NA,NA,no,Jacksonville District(SAJ),SAJ,1,Civil Works,cw,2,Deep Draft Navigation,4,General Re-evaluation,26.781169,-82.103568,4,Planning,4500000,2021-08-18T05:00:00Z,2024-08-16T05:00:00Z,11/15/2023,27,1,2
3089,"City of El Paso, Texas Project for Flood Damage Reduction Study",472125,NA,NA,NA,Albuquerque District(SPA),SPA,1,Civil Works,cw,1,Inland Flood Risk Management,NA,NA,31.822742,-106.451128,NA,NA,NA,NA,NA,7/3/2023 9:41 PM,31,1,1
3109,Little Blue River Flood Risk Management Study,496089,NA,NA,NA,Kansas City District(NWK),NWK,1,Civil Works,cw,1,Inland Flood Risk Management,NA,NA,39.02162,-94.37376,4,Planning,3000000,2021-09-29T05:00:00Z,2026-06-29T05:00:00Z,12/11/2023,19,1,1
3129,Lower Missouri Basin Flood Risk & Resiliency,484710,NA,NA,NA,Kansas City District(NWK),NWK,1,Civil Works,cw,1,Inland Flood Risk Management,NA,NA,41.638000000000005,-96.107,NA,NA,NA,NA,NA,11/5/2021 5:30 PM,19,1,1
3130,"Akutan Harbor Navigational Improvements, AK",495160,NA,NA,no,Alaska District(POA),POA,1,Civil Works,cw,3,Small Boat Harbors,1,General Investigations Feasibility,54.141653,-165.629547,4,Planning,3000000,2021-07-19T05:00:00Z,2024-07-23T05:00:00Z,11/28/2023,24,1,3
3149,"OLD Brunswick County Beaches, Holden Beach Portion, General Re-evaluation Report",48150500,NA,481505,no,Wilmington District(SAW),SAW,1,Civil Works,cw,4,Coastal Storm Risk Management,4,General Re-evaluation,33.915662,-78.26032599999999,4,Planning,3000000,2023-05-28T05:00:00Z,2026-09-29T05:00:00Z,6/30/2023,30,1,4
3169,North DeSoto County Feasibility Study,444806,NA,NA,NA,Memphis District(MVM),MVM,1,Civil Works,cw,1,Inland Flood Risk Management,NA,NA,34.88387,-90.021,NA,NA,NA,NA,NA,11/16/2021,9,1,1
3189,"MS Riv Hatchie/Loosahatchie, MS Rvr Mi 775-736, TN & AR",445120,NA,NA,no,Memphis District(MVM),MVM,1,Civil Works,cw,6,Aquatic Ecosystem Restoration,1,General Investigations Feasibility,35.361194,-90.087683,4,Planning,3000000,2021-07-30T05:00:00Z,2024-07-01T05:00:00Z,2/28/2023 7:04 PM,9,1,6
3209,Lower Delaware River DMMP,462100,NA,NA,NA,Philadelphia District(NAP),NAP,1,Civil Works,cw,2,Deep Draft Navigation,NA,NA,39.450542,-75.554026,NA,NA,NA,NA,NA,1/17/2023 5:12 PM,18,1,2
3229,"Lower Osage River, MO",464838,NA,NA,no,Kansas City District(NWK),NWK,1,Civil Works,cw,6,Aquatic Ecosystem Restoration,1,General Investigations Feasibility,38.25428,-92.305941,4,Planning,3000000,2022-09-16T05:00:00Z,2023-01-16T05:00:00Z,5/24/2023 1:32 PM,19,1,6
3250,PR Coastal Post Exception,461551,NA,NA,NA,Jacksonville District(SAJ),SAJ,1,Civil Works,cw,4,Coastal Storm Risk Management,NA,NA,18.2208,-66.10571999999999,NA,NA,NA,NA,NA,9/21/2023 7:26 PM,27,1,4
3269,Lower Missouri River BSNP Navigation Feasibility Study,445551,NA,NA,NA,Kansas City District(NWK),NWK,1,Civil Works,cw,16,Inland Navigation,NA,NA,39.145931,-94.533244,NA,NA,NA,NA,NA,2/25/2022 4:06 PM,19,1,16
3289,Upper Mississippi River Restoration ?Lower Pool 13 Habitat Restoration and Enhancement Project,469162,NA,NA,NA,Rock Island District(MVR),MVR,1,Civil Works,cw,6,Aquatic Ecosystem Restoration,6,Post-Authorization Decision Document,NA,NA,NA,NA,NA,NA,NA,3/8/2022,12,1,6
3290,Watsonville Slough Ecosystem Restoration,465934,NA,NA,yes,San Francisco District(SPN),SPN,1,Civil Works,cw,6,Aquatic Ecosystem Restoration,NA,NA,36.866482,-121.817627,1,CAP Feasibility,1,2022-07-04T05:00:00Z,2023-11-03T05:00:00Z,11/6/2023,34,1,6
3309,BALTIMORE COASTAL STORM RISK MANAGEMENT FEASIBILITY STUDY,404561,NA,NA,NA,Baltimore District(NAB),NAB,1,Civil Works,cw,4,Coastal Storm Risk Management,NA,NA,39.2557,-76.5484,NA,NA,NA,NA,NA,4/5/2022,14,1,4
3329,"Lake Elsinore Aquatic Ecosystem Restoration CAP 206, CA",468573,NA,NA,yes,Los Angeles District(SPL),SPL,1,Civil Works,cw,6,Aquatic Ecosystem Restoration,2,CAP Decision Document,33.661754,-117.331432,1,CAP Feasibility,0,2021-05-25T05:00:00Z,2024-05-08T05:00:00Z,3/1/2024 8:18 PM,33,1,6
3349,"Quincy Bay, IL",475913,NA,NA,NA,St. Paul District(MVP),MVP,1,Civil Works,cw,6,Aquatic Ecosystem Restoration,NA,NA,39.95804,-91.42067,4,Planning,2000000,2021-10-25T05:00:00Z,2024-09-20T05:00:00Z,7/5/2024 9:16 PM,11,1,6
3369,KBSBB,474967,NA,NA,NA,Jacksonville District(SAJ),SAJ,1,Civil Works,cw,4,Coastal Storm Risk Management,NA,NA,25.692497,-80.169556,NA,NA,NA,NA,NA,5/20/2022 1:02 PM,27,1,4
3389,"Murrieta Creek General Reevaluation Report, CA",496540,NA,NA,no,Los Angeles District(SPL),SPL,1,Civil Works,cw,1,Inland Flood Risk Management,NA,NA,33.52295,-117.1801,NA,NA,NA,NA,NA,9/28/2023 9:41 PM,33,1,1
3409,PAS-Columbia Bottoms Levee Systems Setback Analysis,503396,NA,503396,no,St. Louis District(MVS),MVS,1,Civil Works,cw,6,Aquatic Ecosystem Restoration,10,Other,38.805952,-90.134588,4,Planning,0,2022-06-16T05:00:00Z,2023-06-16T05:00:00Z,4/28/2023,13,1,6
3410,"CAP Section 107 Kaskaskia River Regional Port, IL",469867,NA,469867,yes,St. Louis District(MVS),MVS,1,Civil Works,cw,16,Inland Navigation,NA,NA,38.189502999999995,-89.895856,1,CAP Feasibility,0,2021-03-03T05:00:00Z,2023-09-12T05:00:00Z,3/26/2024 4:28 PM,13,1,16
3430,LSJ Lathrop Manteca Feasibility Study,503951,NA,NA,no,Sacramento District(SPK),SPK,1,Civil Works,cw,1,Inland Flood Risk Management,1,General Investigations Feasibility,37.808341,-121.32512,4,Planning,7640000,2022-09-30T05:00:00Z,2026-12-18T05:00:00Z,6/8/2023,32,1,1
3431,"Virginia Beach Coastal Storm Risk Management, VA",479972,NA,NA,no,Norfolk District(NAO),NAO,1,Civil Works,cw,4,Coastal Storm Risk Management,NA,NA,36.816913,-75.974074,4,Planning,0,2022-07-21T05:00:00Z,2026-09-17T05:00:00Z,8/21/2023 8:28 AM,17,1,4
3451,Green Brook GRR,500105,NA,NA,no,New York District(NAN),NAN,1,Civil Works,cw,1,Inland Flood Risk Management,NA,NA,40.655556,-74.401667,4,Planning,3200000,2022-09-28T05:00:00Z,2025-09-27T05:00:00Z,12/8/2023 2:09 PM,16,1,1
3491,402964,NA,NA,NA,no,Philadelphia District(NAP),NAP,1,Civil Works,cw,4,Coastal Storm Risk Management,NA,NA,39.1471,-75.54199,7,Operations and Maintenance,4590000,NA,NA,1/18/2023,18,1,4
3511,"C&SF:Flood Resiliency (Section 216) Study, FL",488589,NA,NA,no,Jacksonville District(SAJ),SAJ,1,Civil Works,cw,1,Inland Flood Risk Management,1,General Investigations Feasibility,26.68726,-80.671506,4,Planning,11300000,2022-09-21T05:00:00Z,2026-09-25T05:00:00Z,7/10/2023,27,1,1
3531,Lower Missouri Brunswick L-246,496631,NA,NA,no,Kansas City District(NWK),NWK,1,Civil Works,cw,1,Inland Flood Risk Management,1,General Investigations Feasibility,39.423358,-93.130478,4,Planning,3000000,2022-09-29T05:00:00Z,2025-12-24T05:00:00Z,12/8/2023 2:10 PM,19,1,1
3532,"Lower Missouri Holt Cty, MO and Doniphan Cty, KS",499454,NA,NA,yes,Kansas City District(NWK),NWK,1,Civil Works,cw,1,Inland Flood Risk Management,NA,NA,39.969151,-95.282185,4,Planning,10000000,2022-11-15T05:00:00Z,2028-01-03T05:00:00Z,10/18/2023,19,1,1
3544,Test A Project,000000,NA,000000,no,Alaska District(POA),POA,1,Civil Works,cw,6,Aquatic Ecosystem Restoration,1,General Investigations Feasibility,39.97712,-98.44629,4,Planning,3000000,2022-01-01T05:00:00Z,2025-01-01T05:00:00Z,2/28/2024,24,1,6
3546,Planning Capstone Course,NA,NA,NA,no,Planning Community of Practice(PCOP),NA,1,Civil Works,cw,117,Other,1,General Investigations Feasibility,37.64903,-91.14258,NA,NA,NA,NA,NA,1/20/2023,NA,1,117
3547,West Alton,NA,NA,NA,no,St. Louis District(MVS),MVS,1,Civil Works,cw,6,Aquatic Ecosystem Restoration,10,Other,38.41056,-90.35156,NA,NA,NA,NA,NA,1/20/2023,13,1,6
3551,Spring Creek Aquatic Ecosystem Restoration,471703,NA,NA,yes,Albuquerque District(SPA),SPA,1,Civil Works,cw,6,Aquatic Ecosystem Restoration,NA,NA,38.83089,-104.76082,1,CAP Feasibility,2000,2022-07-06T05:00:00Z,2025-09-15T05:00:00Z,1/23/2024,31,1,6
3553,"Watertown, SD",504570,NA,NA,no,Omaha District(NWO),NWO,1,Civil Works,cw,1,Inland Flood Risk Management,1,General Investigations Feasibility,44.84662,-97.08069,4,Planning,2300000,2022-08-19T05:00:00Z,2026-09-10T05:00:00Z,1/25/2023,20,1,1
3555,St. Augustine Back Bay CSRM,479265,NA,NA,no,Jacksonville District(SAJ),SAJ,1,Civil Works,cw,4,Coastal Storm Risk Management,1,General Investigations Feasibility,29.89423,-81.31393,4,Planning,0,2023-01-09T05:00:00Z,2026-01-09T05:00:00Z,8/21/2023 8:28 AM,27,1,4
3571,"Boston Metropolitan Area, MA",NA,NA,NA,no,New England District(NAE),NAE,1,Civil Works,cw,9,Watershed Studies,7,Watershed Study,42.30753,-70.9837,3,Planning,3000000,2021-12-16T05:00:00Z,2025-10-31T05:00:00Z,1/28/2023,15,1,9
3572,City of Boston Coastal Storm Risk,NA,NA,NA,no,New England District(NAE),NAE,1,Civil Works,cw,4,Coastal Storm Risk Management,1,General Investigations Feasibility,42.365269999999995,-71.05382,4,Planning,6200000,2022-05-02T05:00:00Z,2028-04-30T05:00:00Z,3/23/2023 9:51 PM,15,1,4
3573,"Inner Harbor Navigation Canal Lock Replacement Project, Louisiana",NA,NA,NA,no,New Orleans District(MVN),MVN,1,Civil Works,cw,16,Inland Navigation,1,General Investigations Feasibility,30.00594,-90.02644,4,Planning,2797000,2023-01-01T05:00:00Z,2025-02-05T05:00:00Z,1/30/2023,10,1,16
3574,Lower Missouri River Jefferson City L-142,496630,NA,NA,no,Kansas City District(NWK),NWK,1,Civil Works,cw,1,Inland Flood Risk Management,1,General Investigations Feasibility,38.60014,-92.16651,4,Planning,3000000,2022-11-28T05:00:00Z,2026-01-30T05:00:00Z,1/31/2023,19,1,1
3575,Planning and Evaluation Capstone Course,NA,NA,NA,no,Headquarters U.S. Army Corps of Engineers(HQ),NA,1,Civil Works,cw,116,Multi Objective,NA,NA,38.63833,-90.22522,4,Planning,3000000,2023-02-01T05:00:00Z,2026-02-02T05:00:00Z,2/1/2023,NA,1,116
3576,Owyhee,479131,NA,NA,yes,Walla Walla District(NWW),NWW,1,Civil Works,cw,6,Aquatic Ecosystem Restoration,2,CAP Decision Document,42.01209,-116.1446,1,CAP Feasibility,0,2022-02-01T05:00:00Z,2024-02-01T05:00:00Z,2/2/2023,23,1,6
3593,Lower Mississippi River Comprehensive Management Study,NA,NA,NA,no,New Orleans District(MVN),MVN,1,Civil Works,cw,101,Comprehensive Study,1,General Investigations Feasibility,31.06834,-91.60028,4,Planning,25000000,2023-02-14T05:00:00Z,2028-02-14T05:00:00Z,2/13/2023,10,1,101
3631,RumaylanDetention Facility,509717,NA,NA,no,Transatlantic Division(TAD),NA,2,Military Program,mp,118,Major Construction,NA,NA,37.0042,41.84409,10,Solicitation,20981,2023-03-19T05:00:00Z,2023-08-22T05:00:00Z,2/26/2023,NA,2,118
3651,Keystone Dam ? Wedge,495646,NA,NA,no,Tulsa District(SWT),SWT,1,Civil Works,cw,1,Inland Flood Risk Management,6,Post-Authorization Decision Document,36.2306,96.305,NA,NA,NA,NA,NA,3/6/2023,38,1,1
3652,DE Inland Bay/Bay Coast,402963,NA,NA,no,Philadelphia District(NAP),NAP,1,Civil Works,cw,4,Coastal Storm Risk Management,1,General Investigations Feasibility,38.5581,-75.13275,4,Planning,2000000,2022-11-28T05:00:00Z,2025-11-28T05:00:00Z,3/7/2023,18,1,4
3653,"2024 Dredging Project, Military Ocean Terminal Concord (MOTCO), CA.",NA,NA,NA,no,Sacramento District(SPK),SPK,2,Military Program,mp,119,Standard Construction,NA,NA,38.05458,-122.01564,9,Design,0,2019-07-02T05:00:00Z,2023-03-01T05:00:00Z,3/7/2023,32,2,119
3654,Keystone Dam ? Wedge (495646),NA,NA,NA,no,Tulsa District(SWT),SWT,1,Civil Works,cw,1,Inland Flood Risk Management,10,Other,36.2306,96.305,4,Planning,0,2023-01-02T05:00:00Z,2024-06-03T05:00:00Z,3/9/2023,38,1,1
3672,Capstone PCC3,NA,NA,NA,no,Planning Community of Practice(PCOP),NA,1,Civil Works,cw,1,Inland Flood Risk Management,1,General Investigations Feasibility,38.17602,-90.26542,4,Planning,3000000,2023-03-14T05:00:00Z,2027-03-07T05:00:00Z,3/14/2023,NA,1,1
3673,Capstone PCC3,NA,NA,NA,no,Planning Community of Practice(PCOP),NA,1,Civil Works,cw,1,Inland Flood Risk Management,1,General Investigations Feasibility,38.17602,-90.26542,4,Planning,NA,NA,NA,3/14/2023,NA,1,1
3674,Capstone PCC3,NA,NA,NA,no,Planning Community of Practice(PCOP),NA,1,Civil Works,cw,1,Inland Flood Risk Management,1,General Investigations Feasibility,38.17602,-90.26542,4,Planning,NA,NA,NA,3/14/2023,NA,1,1
3675,Capstone PCC3,NA,NA,NA,no,Planning Community of Practice(PCOP),NA,1,Civil Works,cw,1,Inland Flood Risk Management,1,General Investigations Feasibility,38.17602,-90.26542,4,Planning,NA,NA,NA,3/14/2023,NA,1,1
3676,Capstone PCC3,NA,NA,NA,no,Planning Community of Practice(PCOP),NA,1,Civil Works,cw,1,Inland Flood Risk Management,1,General Investigations Feasibility,38.17602,-90.26542,4,Planning,NA,NA,NA,3/14/2023,NA,1,1
3677,Capstone,NA,NA,NA,no,Planning Community of Practice(PCOP),NA,1,Civil Works,cw,116,Multi Objective,1,General Investigations Feasibility,38.46563,-90.88044,4,Planning,3000000,2023-03-15T05:00:00Z,2024-03-11T05:00:00Z,6/7/2024 6:09 PM,NA,1,116
3691,"San Diego County Shoreline - Oceanside, CA, Mitigation Study",104714,NA,NA,no,Los Angeles District(SPL),SPL,1,Civil Works,cw,4,Coastal Storm Risk Management,10,Other,33.1997,-117.38913,4,Planning,1800000000,2022-11-03T05:00:00Z,2025-11-03T05:00:00Z,3/22/2023,33,1,4
3711,"Hartford and East Hartford, CT Section 216 Levee Rehabilitation Study",465097,NA,NA,no,New England District(NAE),NAE,1,Civil Works,cw,1,Inland Flood Risk Management,1,General Investigations Feasibility,41.76996,-72.66272,4,Planning,3000000,2023-01-03T05:00:00Z,2026-01-02T05:00:00Z,6/14/2023 11:38 PM,15,1,1
3731,TEST TEAM MEMBER,589000,NA,589001,no,Baltimore District(NAB),NAB,1,Civil Works,cw,6,Aquatic Ecosystem Restoration,1,General Investigations Feasibility,38.754079999999995,-76.37695,7,Operations and Maintenance,150000,NA,NA,8/21/2023,14,1,6
3751,DRSAA WSLP Resiliency & Feasibility Study,504531,NA,NA,no,New Orleans District(MVN),MVN,1,Civil Works,cw,4,Coastal Storm Risk Management,NA,NA,30.07266,-90.49095,4,Planning,0,NA,NA,7/13/2023,10,1,4
3771,Atka Navigation Improvements,NA,NA,NA,no,Alaska District(POA),POA,1,Civil Works,cw,3,Small Boat Harbors,1,General Investigations Feasibility,52.19826,-174.19804,4,Planning,0,2022-08-04T05:00:00Z,2026-03-30T05:00:00Z,8/21/2023 8:28 AM,24,1,3
3772,Bluestone DSA,NA,NA,NA,no,Huntington District(LRH),LRH,1,Civil Works,cw,1,Inland Flood Risk Management,10,Other,37.64059,-80.88637,6,Construction,0,2023-04-12T05:00:00Z,2023-05-31T05:00:00Z,4/12/2023,4,1,1
3773,Sea Bright to Manasquan GRR,494595,NA,NA,no,New York District(NAN),NAN,1,Civil Works,cw,4,Coastal Storm Risk Management,1,General Investigations Feasibility,40.35801,-73.96794,4,Planning,3000000,2022-10-18T05:00:00Z,2025-10-18T05:00:00Z,4/12/2023,16,1,4
3791,TEST IIS,110000,NA,110000,no,Baltimore District(NAB),NAB,4,International and Interagency Services,iis,124,International and Interagency Services (IIS),NA,NA,38.754079999999995,-76.20116999999999,16,Planning,150000,2022-04-01T05:00:00Z,2022-12-30T05:00:00Z,5/23/2023,14,4,124
3793,DRSSAA Comite Resiliency,506798,NA,NA,no,New Orleans District(MVN),MVN,1,Civil Works,cw,1,Inland Flood Risk Management,4,General Re-evaluation,30.590639999999997,-91.29214,4,Planning,3000000,2023-01-30T05:00:00Z,2026-01-30T05:00:00Z,4/10/2024 3:09 PM,10,1,1
3811,Hyder Harbor Navigational Improvements,484472,NA,NA,yes,Alaska District(POA),POA,1,Civil Works,cw,3,Small Boat Harbors,2,CAP Decision Document,55.904869999999995,-130.01169,1,CAP Feasibility,1420000,2022-09-19T05:00:00Z,2024-07-03T05:00:00Z,8/21/2023 8:28 AM,24,1,3
3831,Imperial Streams and Salton Sea Ecosystem Restoration,445445,NA,NA,no,Los Angeles District(SPL),SPL,1,Civil Works,cw,6,Aquatic Ecosystem Restoration,1,General Investigations Feasibility,33.30849,-115.83886,4,Planning,3000000,2022-12-16T05:00:00Z,2025-12-15T05:00:00Z,7/24/2024 11:33 AM,33,1,6
3832,Gulfport Harbor,496689,NA,496689,no,Mobile District(SAM),SAM,1,Civil Works,cw,2,Deep Draft Navigation,1,General Investigations Feasibility,30.34444,-89.07714999999999,4,Planning,4700000,2023-04-18T05:00:00Z,2026-05-16T05:00:00Z,4/16/2024,28,1,2
3851,Savannah Harbor,112985,NA,NA,no,Savannah District(SAS),SAS,1,Civil Works,cw,2,Deep Draft Navigation,NA,NA,32.083200000000005,-81.08604,7,Operations and Maintenance,3000000,NA,NA,5/8/2023,29,1,2
3871,"Inner Harbor Navigation Canal (IHNC) Lock Replacement, Orleans Parish, Louisiana",NA,NA,NA,no,New Orleans District(MVN),MVN,1,Civil Works,cw,16,Inland Navigation,4,General Re-evaluation,29.96584,-90.02659,NA,NA,NA,NA,NA,5/24/2023,10,1,16
3891,HR Beneficial Use of Dredge Material,487264,NA,NA,yes,Norfolk District(NAO),NAO,1,Civil Works,cw,117,Other,2,CAP Decision Document,36.96394,-76.0321,1,CAP Feasibility,800000,2022-04-01T05:00:00Z,2024-03-21T05:00:00Z,5/31/2023 3:53 PM,17,1,117
3911,Andalusia Island Complex,505036,NA,010315,no,Rock Island District(MVR),MVR,1,Civil Works,cw,6,Aquatic Ecosystem Restoration,NA,NA,41.44659,-90.81539,4,Planning,3000000,2020-03-02T05:00:00Z,2023-06-05T05:00:00Z,8/23/2023,12,1,6
3912,"Kinnickinnic River Restoration ? River Falls, Wisconsin",471589,NA,471589,yes,St. Paul District(MVP),MVP,1,Civil Works,cw,6,Aquatic Ecosystem Restoration,2,CAP Decision Document,44.85093,-92.63921,1,CAP Feasibility,0,2023-06-07T05:00:00Z,2024-04-26T05:00:00Z,6/6/2023,11,1,6
3913,"Brunswick County Beaches, Holden Beach Portion, General Re-evaluation Report",481505,NA,481505,no,Wilmington District(SAW),SAW,1,Civil Works,cw,4,Coastal Storm Risk Management,4,General Re-evaluation,33.915662,-78.26032599999999,4,Planning,3000000,2023-05-28T05:00:00Z,2026-09-29T05:00:00Z,7/24/2023 8:10 PM,30,1,4
3914,Surf City Beach Construction PL 116-20,487223,NA,NA,no,Wilmington District(SAW),SAW,1,Civil Works,cw,4,Coastal Storm Risk Management,10,Other,34.422489999999996,-77.54777,4,Planning,3000000,2021-08-01T05:00:00Z,2024-07-31T05:00:00Z,8/21/2023 8:28 AM,30,1,4
3915,"Seismically Upgrade, Reno B2, Replace B1",506120,NA,NA,NA,Seattle District(NWS),NWS,NA,NA,NA,NA,NA,NA,NA,43.224201,-123.367949,16,Planning,2500000,2022-07-01T05:00:00Z,2024-08-01T05:00:00Z,6/15/2023,22,NA,NA
3931,UPPER TURKEY CREEK FRM,505229,NA,NA,no,Kansas City District(NWK),NWK,1,Civil Works,cw,1,Inland Flood Risk Management,1,General Investigations Feasibility,39.024491999999995,94.693186,5,Pre-Construction Engineering and Design (PED),15724000,2024-01-05T05:00:00Z,2027-05-03T05:00:00Z,10/2/2023,19,1,1
3933,Sabula,505035,NA,010315,no,Rock Island District(MVR),MVR,1,Civil Works,cw,6,Aquatic Ecosystem Restoration,NA,NA,42.071040000000004,-90.18767,4,Planning,1000000,2023-06-20T05:00:00Z,2025-07-31T05:00:00Z,7/3/2024,12,1,6
3934,TEST DATES,114888,NA,589000,yes,Baltimore District(NAB),NAB,1,Civil Works,cw,6,Aquatic Ecosystem Restoration,NA,NA,38.41056,-75.57703,1,CAP Feasibility,125000,2022-11-01T05:00:00Z,2023-10-02T05:00:00Z,11/27/2023,14,1,6
3935,491093,491093,NA,010315,no,Rock Island District(MVR),MVR,1,Civil Works,cw,6,Aquatic Ecosystem Restoration,10,Other,38.89103,-90.79102,4,Planning,0,NA,NA,6/23/2023,12,1,6
3936,NESP - ECOS - Fish Passage - L&D 22,508190,NA,010315,no,Rock Island District(MVR),MVR,1,Civil Works,cw,6,Aquatic Ecosystem Restoration,10,Other,38.79976,-90.65783,5,Pre-Construction Engineering and Design (PED),30000000,2023-06-26T05:00:00Z,2024-06-26T05:00:00Z,6/26/2023,12,1,6
3951,Osage River Ecosystem Restoration - Sec 1135,471438,NA,NA,yes,Kansas City District(NWK),NWK,1,Civil Works,cw,6,Aquatic Ecosystem Restoration,NA,NA,38.20036,-92.52309,1,CAP Feasibility,500000,2022-05-02T05:00:00Z,2024-08-05T05:00:00Z,8/10/2023,19,1,6
3971,Homer Navigation Improvements,511566,NA,NA,no,Alaska District(POA),POA,1,Civil Works,cw,3,Small Boat Harbors,1,General Investigations Feasibility,59.60737,-151.42147,4,Planning,0,2023-04-14T05:00:00Z,2026-03-29T05:00:00Z,7/12/2023,24,1,3
3991,McDowell County-WRDA 2007,514222,NA,075395,no,Huntington District(LRH),LRH,1,Civil Works,cw,117,Other,1,General Investigations Feasibility,37.37,-81.65,4,Planning,0,2023-10-01T05:00:00Z,2025-10-31T05:00:00Z,7/17/2023,4,1,117
3992,CAP 107 Put-In-Bay,507843,NA,NA,yes,Buffalo District(LRB),LRB,1,Civil Works,cw,3,Small Boat Harbors,2,CAP Decision Document,41.65188,-82.81700000000001,1,CAP Feasibility,50000,2023-03-16T05:00:00Z,2023-07-14T05:00:00Z,7/19/2023,1,1,3
3993,"Vermilion County, Illinois, Emergency Streambank Stabilization",478575,NA,478575,yes,Louisville District(LRL),LRL,1,Civil Works,cw,117,Other,NA,NA,40.23628,-87.77284999999999,2,CAP Design and Construction,4013000,2024-05-30T05:00:00Z,2025-12-30T05:00:00Z,5/6/2024,5,1,117
3994,Statts Mills Road Water Extension Project,514554,NA,NA,no,Huntington District(LRH),LRH,1,Civil Works,cw,117,Other,NA,NA,38.755814,-81.668893,4,Planning,14050,2023-07-10T05:00:00Z,2024-01-29T05:00:00Z,9/1/2023,4,1,117
4011,CEPP North,370939,NA,NA,no,Jacksonville District(SAJ),SAJ,1,Civil Works,cw,6,Aquatic Ecosystem Restoration,1,General Investigations Feasibility,26.317729999999997,-80.69733,5,Pre-Construction Engineering and Design (PED),75088000,2014-12-01T05:00:00Z,2024-12-01T05:00:00Z,1/11/2024,27,1,6
4012,Whitney Lake Reallocation Study,513422,NA,513422,no,Ft. Worth District(SWF),SWF,1,Civil Works,cw,8,Water Management and Reallocation,1,General Investigations Feasibility,31.89155,-97.38968,4,Planning,3000000,2023-04-28T05:00:00Z,2026-04-30T05:00:00Z,7/25/2023,35,1,8
4013,SMR Levee MCAS CPEN,505416,NA,505416,no,Los Angeles District(SPL),SPL,1,Civil Works,cw,1,Inland Flood Risk Management,4,General Re-evaluation,33.30412,-117.35619,5,Pre-Construction Engineering and Design (PED),3000000,2023-04-11T05:00:00Z,2025-01-15T05:00:00Z,7/28/2023,33,1,1
4031,"Beattyville, KY FRM Project",498982,NA,NA,no,Louisville District(LRL),LRL,1,Civil Works,cw,1,Inland Flood Risk Management,1,General Investigations Feasibility,37.57324,-83.70645999999999,4,Planning,3000000,2023-01-03T05:00:00Z,2025-12-30T05:00:00Z,7/31/2023,5,1,1
4032,"SA-Iao Stream, Maui, HI",102968,NA,073322,NA,Honolulu District(POH),POH,NA,NA,NA,NA,NA,4,General Re-evaluation,20.89178,-156.50341,5,Pre-Construction Engineering and Design (PED),525000,2023-05-06T05:00:00Z,2026-05-08T05:00:00Z,7/31/2023,25,NA,NA
4033,"Morganza to the Gulf, LA (Hurricane Protection) - MTG-03A-Reach A",498544,NA,NA,no,New Orleans District(MVN),MVN,1,Civil Works,cw,1,Inland Flood Risk Management,NA,NA,29.548219999999997,-90.80702,6,Construction,24926450,2022-04-01T05:00:00Z,2029-11-18T05:00:00Z,8/1/2023,10,1,1
4051,Environmental Infrastructure Template,NA,NA,NA,no,Huntington District(LRH),LRH,1,Civil Works,cw,117,Other,NA,NA,38.41887,-82.44472999999999,5,Pre-Construction Engineering and Design (PED),42600,2024-02-09T05:00:00Z,2025-01-15T05:00:00Z,8/9/2023,4,1,117
4052,MVN Test,123456,NA,123456,no,New Orleans District(MVN),MVN,1,Civil Works,cw,1,Inland Flood Risk Management,1,General Investigations Feasibility,29.51611,-91.18652,4,Planning,1000,2023-08-09T05:00:00Z,2023-08-18T05:00:00Z,8/9/2023,10,1,1
4053,Atlantic Coast New York South Shore of Long Island Coastal Storm Risk Management Feasibility Study,502534,NA,NA,no,New York District(NAN),NAN,1,Civil Works,cw,4,Coastal Storm Risk Management,1,General Investigations Feasibility,40.65897,-73.54805,4,Planning,3000000,2023-05-23T05:00:00Z,2026-05-23T05:00:00Z,9/25/2023 12:46 PM,16,1,4
4054,Grayson Water Supply Storage Reallocation Study,111167,NA,NA,no,Huntington District(LRH),LRH,1,Civil Works,cw,8,Water Management and Reallocation,10,Other,38.25227,-82.9842,4,Planning,1100000,2020-05-14T05:00:00Z,2026-04-02T05:00:00Z,8/10/2023,4,1,8
5152,"Chicago Shoreline, IL",324689,NA,NA,no,Chicago District(LRC),LRC,1,Civil Works,cw,4,Coastal Storm Risk Management,4,General Re-evaluation,41.79316,-87.90312999999999,4,Planning,4590000,2022-08-24T05:00:00Z,2026-11-20T05:00:00Z,7/15/2024 5:51 PM,2,1,4
5172,Honolulu Deep Draft Harbor Modifications Feasibility Study,445194,NA,NA,no,Honolulu District(POH),POH,1,Civil Works,cw,2,Deep Draft Navigation,1,General Investigations Feasibility,21.30713,-157.87113,4,Planning,7036000,2022-09-23T05:00:00Z,2028-09-22T05:00:00Z,8/22/2024,25,1,2
5212,Dallas Floodway,468759,NA,NA,no,Ft. Worth District(SWF),SWF,1,Civil Works,cw,1,Inland Flood Risk Management,10,Other,32.89804,-96.85547,6,Construction,503857712,2018-08-01T05:00:00Z,2033-06-03T05:00:00Z,5/22/2024,35,1,1
5252,Matagorda Ship Channel Jetty Deficiency,496178,NA,NA,no,Galveston District(SWG),SWG,1,Civil Works,cw,2,Deep Draft Navigation,NA,NA,28.428849999999997,-96.33087,5,Pre-Construction Engineering and Design (PED),6600000,2024-09-02T05:00:00Z,2027-01-22T05:00:00Z,5/31/2024,36,1,2
5292,TOWNSHIP OF DELRAN EMERGENCY STREAMBANK AND SHORELINE EROSION PROTECTION OF PUBLIC WORKS AND HISTORIC STRUCTURES,464266,NA,NA,yes,Philadelphia District(NAP),NAP,1,Civil Works,cw,117,Other,2,CAP Decision Document,40.03971,-74.97479,1,CAP Feasibility,1065100,2024-07-22T05:00:00Z,2026-04-14T05:00:00Z,6/7/2024,18,1,117
5312,Hereford Inlet to Cape May Inlet (Wildwoods) Beachfill,109882,NA,NA,no,Philadelphia District(NAP),NAP,1,Civil Works,cw,4,Coastal Storm Risk Management,NA,NA,39.00119,-74.78672999999999,5,Pre-Construction Engineering and Design (PED),1,2023-06-01T05:00:00Z,2024-11-15T05:00:00Z,6/14/2024,18,1,4
5332,Charlotte County CSRM Feasibility Study,514283,NA,NA,no,Savannah District(SAS),SAS,1,Civil Works,cw,4,Coastal Storm Risk Management,1,General Investigations Feasibility,26.92023,-82.35884,4,Planning,3000000,2024-06-13T05:00:00Z,2027-06-12T05:00:00Z,6/21/2024,29,1,4
5352,"Little Miami River, Loveland, Ohio CAP Sec. 14",483652,NA,NA,yes,Louisville District(LRL),LRL,1,Civil Works,cw,117,Other,2,CAP Decision Document,39.257047,84.274664,1,CAP Feasibility,100000,2023-07-06T05:00:00Z,2024-09-24T05:00:00Z,6/24/2024,5,1,117
5372,S2G Port Arthur,488779,Contracts,NA,no,Galveston District(SWG),SWG,1,Civil Works,cw,4,Coastal Storm Risk Management,10,Other,29.8397,-93.96183,5,Pre-Construction Engineering and Design (PED),1902000,2023-02-01T05:00:00Z,2023-07-01T05:00:00Z,7/15/2024,36,1,4
5392,Kanawha River Basin Feasibility,464743,NA,NA,no,Huntington District(LRH),LRH,1,Civil Works,cw,1,Inland Flood Risk Management,1,General Investigations Feasibility,38.38056,-81.67833,4,Planning,3000000,2024-07-01T05:00:00Z,2027-07-02T05:00:00Z,7/6/2024,4,1,1
5412,Section 340 - Bolair Sewer Extension,521161,NA,NA,no,Huntington District(LRH),LRH,1,Civil Works,cw,117,Other,10,Other,38.43761,80.44397,4,Planning,20000,2024-06-06T05:00:00Z,2024-10-17T05:00:00Z,7/3/2024,4,1,117
5413,Section 340 - Bolair Sewer Extension,521161,NA,NA,no,Huntington District(LRH),LRH,1,Civil Works,cw,117,Other,10,Other,38.43761,80.44397,4,Planning,NA,NA,NA,7/3/2024,4,1,117
5414,Redbank and Fancher Creeks Feasibility Study,510385,NA,NA,no,Sacramento District(SPK),SPK,1,Civil Works,cw,8,Water Management and Reallocation,1,General Investigations Feasibility,36.8755,-119.64558,4,Planning,3000000,2024-02-07T05:00:00Z,2027-02-05T05:00:00Z,7/3/2024,32,1,8
5432,"McDowell County, WV Nonstructural Flood Control Project ? Section 202",112504,NA,NA,no,Huntington District(LRH),LRH,1,Civil Works,cw,1,Inland Flood Risk Management,1,General Investigations Feasibility,37.386,-81.6473,5,Pre-Construction Engineering and Design (PED),2000000000,1999-09-27T05:00:00Z,2024-09-30T05:00:00Z,7/9/2024 1:08 PM,4,1,1
5452,Town of Davy Phase 1 Sewer Project,521167,NA,014183,no,Huntington District(LRH),LRH,1,Civil Works,cw,117,Other,10,Other,37.47327,-81.64370000000001,4,Planning,20000,2024-05-24T05:00:00Z,2025-03-12T05:00:00Z,7/10/2024,4,1,117
5492,Eagle Creek Section 205 Flood Risk Management Study,473391,NA,NA,yes,South Atlantic Division(SAD),SAD,1,Civil Works,cw,1,Inland Flood Risk Management,2,CAP Decision Document,32.973611,80.125556,1,CAP Feasibility,1130932,2023-12-19T05:00:00Z,2025-12-18T05:00:00Z,7/16/2024,57,1,1
5512,Fix your project name here,000000,FIX P2 number,NA,no,Far East District(POF),POF,2,Military Program,mp,118,Major Construction,NA,NA,36.43093,-232.69574,8,Planning,1,2024-07-01T05:00:00Z,2024-07-02T05:00:00Z,7/17/2024,44,2,118
5513,Malvern Water System Replacement Phase 2,522121,NA,013692,no,Huntington District(LRH),LRH,1,Civil Works,cw,117,Other,10,Other,40.69208,-81.18158,4,Planning,20000,2024-07-12T05:00:00Z,2025-02-27T05:00:00Z,7/17/2024,4,1,117
5515,Sec 340 - Ansted I&I Improvements,521479,NA,014183,no,Huntington District(LRH),LRH,1,Civil Works,cw,117,Other,10,Other,38.1362,-81.0995,4,Planning,19000,2024-06-12T05:00:00Z,2025-02-10T05:00:00Z,7/18/2024,4,1,117
5516,"CY25 ROKFC In-Kind F14R501 (Non-Secure), DMO Flight Simulator, Osan AB",515882,NA,515882,no,Far East District(POF),POF,2,Military Program,mp,118,Major Construction,NA,NA,37.08038,-232.97195,9,Design,226727,2022-05-03T05:00:00Z,2024-03-31T05:00:00Z,7/18/2024,44,2,118
5517,Crab Creek Water Treatment Improvements,521477,NA,NA,no,Huntington District(LRH),LRH,1,Civil Works,cw,117,Other,10,Other,38.7501,-82.1887,4,Planning,18000,2024-06-12T05:00:00Z,2025-02-11T05:00:00Z,7/18/2024,4,1,117
5532,Danville Wastewater Treatment Plant Improvement Project,521194,NA,NA,no,Huntington District(LRH),LRH,1,Civil Works,cw,117,Other,10,Other,38.1028,-81.8472,4,Planning,19000,2024-06-07T05:00:00Z,2025-03-04T05:00:00Z,7/22/2024,4,1,117
5533,Diana Guardian Waterline Extension,521292,NA,NA,no,Huntington District(LRH),LRH,1,Civil Works,cw,117,Other,10,Other,38.6336,-80.4679,4,Planning,19000,2024-06-07T05:00:00Z,2025-02-07T05:00:00Z,7/22/2024,4,1,117
5534,Town of Davy Water Treatment Plant Upgrade,514496,NA,013692,no,Huntington District(LRH),LRH,1,Civil Works,cw,117,Other,10,Other,37.47327,-81.64370000000001,4,Planning,18000,2023-07-28T05:00:00Z,2024-11-20T05:00:00Z,7/23/2024,4,1,117
5535,Sec 340 - Marlinton Sewer Pump Station Upgrade Project,521294,NA,014183,no,Huntington District(LRH),LRH,1,Civil Works,cw,117,Other,10,Other,38.2235,-80.09450000000001,4,Planning,19000,2024-06-04T05:00:00Z,2025-02-13T05:00:00Z,7/23/2024,4,1,117
5552,Sec 340 - Richwood WWTP Replacement Project,521478,NA,117533,no,Huntington District(LRH),LRH,1,Civil Works,cw,117,Other,10,Other,38.2248,-80.5331,4,Planning,19000,2024-06-12T05:00:00Z,2025-02-11T05:00:00Z,7/24/2024,4,1,117
5572,TEST NEW FUNDTYPE,100044,NA,NA,no,Far East District(POF),POF,2,Military Program,mp,119,Standard Construction,NA,NA,23.106679999999997,-79.53096,11,Closeout,12222,2024-05-05T05:00:00Z,2024-09-25T05:00:00Z,7/26/2024,44,2,119
5592,Martin Co.,112505,NA,NA,no,Huntington District(LRH),LRH,1,Civil Works,cw,1,Inland Flood Risk Management,10,Other,37.8,-82.52,6,Construction,61137023,2020-01-01T05:00:00Z,2030-01-01T05:00:00Z,7/29/2024,4,1,1
5612,Pike Co. (Tug-Tribs),112460,NA,NA,no,Huntington District(LRH),LRH,1,Civil Works,cw,1,Inland Flood Risk Management,10,Other,37.46902,-82.39587,6,Construction,247252898,2020-01-01T05:00:00Z,2030-01-01T05:00:00Z,7/30/2024,4,1,1
5632,Renovate and Construct for 414 FG and FS,520555,NA,NA,no,Louisville District(LRL),LRL,2,Military Program,mp,118,Major Construction,NA,NA,34.958,-78.13477,9,Design,750000,2024-09-18T05:00:00Z,2025-05-19T05:00:00Z,7/31/2024,5,2,118
5634,"CY25_ROKFC_F14R501_DMO Flight Simulator, Osan AB",515882,000000,515882,no,Far East District(POF),POF,2,Military Program,mp,118,Major Construction,NA,NA,37.08339,-232.97367,9,Design,2034300,2022-05-03T05:00:00Z,2024-08-30T05:00:00Z,8/2/2024,44,2,118
5635,"CY25_ROKFC F14R501, (Secure) DMO Flight Simulator, Osan AB",515882,000002,515882,no,Far East District(POF),POF,2,Military Program,mp,118,Major Construction,NA,NA,37.08394,-232.97333,9,Design,1354282,2022-05-03T05:00:00Z,2025-08-17T05:00:00Z,8/2/2024,44,2,118
5636,"CY25_ROKFC F21R173_Repair Aircraft Maintenance Hanger B-1732, Osan AB",506278,000000,506278,no,Far East District(POF),POF,2,Military Program,mp,118,Major Construction,NA,NA,37.08329,-232.97247,9,Design,831884,2023-06-22T05:00:00Z,2025-08-31T05:00:00Z,8/2/2024,44,2,118
5637,"CY25_ROKFC F21R511_Water Supply Treatment Facility, Osan AB",506922,000000,506922,no,Far East District(POF),POF,2,Military Program,mp,118,Major Construction,NA,NA,37.08038,-232.97195,9,Design,2999549,2023-09-27T05:00:00Z,2025-02-14T05:00:00Z,8/2/2024,44,2,118
5638,Pike Levisa - Coal Run Levee,399516,399516.3.3.2,NA,no,Huntington District(LRH),LRH,1,Civil Works,cw,1,Inland Flood Risk Management,NA,NA,37.510819999999995,-82.56020000000001,5,Pre-Construction Engineering and Design (PED),13494000,2020-10-26T05:00:00Z,2026-09-01T05:00:00Z,8/2/2024,4,1,1
5640,Hamilton Army Airfield Restoration Project,103861,NA,NA,no,San Francisco District(SPN),SPN,5,Environmental,env,122,Environmental (ENV),NA,NA,38.05995,-122.50703,27,NA,123904139,2002-04-22T05:00:00Z,2029-02-21T05:00:00Z,8/7/2024,34,5,122
5659,"Brunswick County Beaches, Oak Island Portion, General Reevaluation",495071,NA,NA,no,Wilmington District(SAW),SAW,1,Civil Works,cw,4,Coastal Storm Risk Management,4,General Re-evaluation,33.914359999999995,-78.14842,4,Planning,5000000,2023-10-19T05:00:00Z,2028-01-07T05:00:00Z,8/12/2024,30,1,4
5660,Fruitvale Avenue Railroad Bridge Disposition Study,487199,NA,NA,no,San Francisco District(SPN),SPN,1,Civil Works,cw,117,Other,10,Other,37.76916,-122.23038,4,Planning,823000,2023-05-18T05:00:00Z,2026-02-13T05:00:00Z,8/12/2024,34,1,117
5679,Rough River Dam Safety,145870,NA,NA,no,Louisville District(LRL),LRL,1,Civil Works,cw,1,Inland Flood Risk Management,NA,NA,37.61913,-86.50068,5,Pre-Construction Engineering and Design (PED),50000000,2013-08-05T05:00:00Z,2024-11-15T05:00:00Z,8/13/2024,5,1,1
5719,"Jackson County, KY Section 531 - Intake Line Replacement",507952,NA,NA,no,Nashville District(LRN),LRN,1,Civil Works,cw,8,Water Management and Reallocation,10,Other,37.37751,-83.913595,5,Pre-Construction Engineering and Design (PED),25000,2023-10-05T05:00:00Z,2025-01-13T05:00:00Z,8/15/2024,6,1,8
5720,City of Atlanta Water Line Condition Assessment,521428,NA,521428,no,Savannah District(SAS),SAS,1,Civil Works,cw,117,Other,10,Other,33.78306,-84.38389,4,Planning,990500,2024-06-17T05:00:00Z,2026-10-29T05:00:00Z,8/15/2024,29,1,117
5721,Cleveland Harbor DMMP,461844,NA,461844,no,Buffalo District(LRB),LRB,1,Civil Works,cw,16,Inland Navigation,10,Other,41.50318,-81.71193,4,Planning,1600000,2024-07-01T05:00:00Z,2027-07-01T05:00:00Z,8/15/2024,1,1,16
5722,Osceola Harbor Expansion,518521,NA,NA,yes,Memphis District(MVM),MVM,1,Civil Works,cw,16,Inland Navigation,2,CAP Decision Document,35.68719,-89.95367,1,CAP Feasibility,600000,2024-08-01T05:00:00Z,2025-05-31T05:00:00Z,8/15/2024,9,1,16
5759,P2 501969 - Building 198 Roof Replacement - NSWC Crane,501969,NA,NA,no,Louisville District(LRL),LRL,2,Military Program,mp,119,Standard Construction,NA,NA,39.027719999999995,-86.66015999999999,24,NA,3000000,2024-08-09T05:00:00Z,2025-02-19T05:00:00Z,8/20/2024,5,2,119
5779,Pueblo of Isleta CAP Sec 1135,468123,NA,NA,no,Albuquerque District(SPA),SPA,1,Civil Works,cw,6,Aquatic Ecosystem Restoration,1,General Investigations Feasibility,34.90125,-106.71125,4,Planning,1500000,2024-05-30T05:00:00Z,2027-05-30T05:00:00Z,8/26/2024,31,1,6
5780,Flint Lake Aquatic Ecosystem Restoration,521694,NA,NA,yes,Chicago District(LRC),LRC,1,Civil Works,cw,6,Aquatic Ecosystem Restoration,2,CAP Decision Document,42.20348,-88.17008,1,CAP Feasibility,100000,2024-07-17T05:00:00Z,2024-10-17T05:00:00Z,8/26/2024,2,1,6
5800,Peninsula Coastal Storm Risk Management,452955,NA,NA,no,Norfolk District(NAO),NAO,1,Civil Works,cw,4,Coastal Storm Risk Management,1,General Investigations Feasibility,37.01504,-76.36852999999999,4,Planning,3200000,2024-07-26T05:00:00Z,2027-07-27T05:00:00Z,8/27/2024,17,1,4
5819,"Rahway Fluvial, NJ",502592,NA,NA,no,New York District(NAN),NAN,1,Civil Works,cw,1,Inland Flood Risk Management,1,General Investigations Feasibility,40.60405,-74.27654,4,Planning,3000000,2023-02-28T05:00:00Z,2026-02-27T05:00:00Z,9/3/2024,16,1,1
5820,Spring Creek South,495929,NA,495929,no,New York District(NAN),NAN,1,Civil Works,cw,4,Coastal Storm Risk Management,1,General Investigations Feasibility,40.65365,-73.83473,4,Planning,3000000,2024-10-01T05:00:00Z,2028-09-30T05:00:00Z,9/3/2024,16,1,4
5839,Comprehensive Water Resources Plan for Fern Hollow Creek,517726,NA,NA,no,Pittsburgh District(LRP),LRP,1,Civil Works,cw,9,Watershed Studies,7,Watershed Study,40.43535,-79.89902,3,Planning,212440,2024-06-10T05:00:00Z,2025-12-31T05:00:00Z,9/4/2024,7,1,9
5879,OBL 2 3155 Research Blvd,475429,NA,NA,no,Louisville District(LRL),LRL,2,Military Program,mp,119,Standard Construction,NA,NA,39.689502999999995,-84.168823,9,Design,85400,2024-05-14T05:00:00Z,2024-09-30T05:00:00Z,9/12/2024,5,2,119
5899,VEHICLE INSPECTION FACILITY,513966,NA,NA,no,Louisville District(LRL),LRL,2,Military Program,mp,119,Standard Construction,NA,NA,44.986656,-93.258133,10,Solicitation,1,2024-08-05T05:00:00Z,2024-09-18T05:00:00Z,9/17/2024,5,2,119
5919,Southwest Coastal Louisiana Nonstructural Coastal Storm Risk Management Project,514673,NA,NA,no,Rock Island District(MVR),MVR,1,Civil Works,cw,4,Coastal Storm Risk Management,NA,NA,30.16175,-93.24921,5,Pre-Construction Engineering and Design (PED),1,2024-07-08T05:00:00Z,2027-10-11T05:00:00Z,9/18/2024,12,1,4
5939,"Chesapeake Bay Oyster Recovery Program, Tangier-Pocomoke Sound",505450,NA,010433,no,Norfolk District(NAO),NAO,1,Civil Works,cw,6,Aquatic Ecosystem Restoration,10,Other,37.82416,-75.98145,4,Planning,3000000,2024-09-03T05:00:00Z,2026-07-30T05:00:00Z,9/20/2024,17,1,6
5959,City of Williamson Water System Upgrade Project Section 340,505201,NA,014183,no,Huntington District(LRH),LRH,1,Civil Works,cw,117,Other,10,Other,37.6743,-82.2774,5,Pre-Construction Engineering and Design (PED),48000,2022-12-22T05:00:00Z,2025-11-07T05:00:00Z,9/23/2024,4,1,117
4166,"FY22 BIL MKARNS 12-Ft CH AR, OK CONST",505043,NA,NA,no,Southwestern Division(SWD),SWD,1,Civil Works,cw,16,Inland Navigation,5,Validation,35.394957,-94.431399,5,Pre-Construction Engineering and Design (PED),102229000,2022-12-10T05:00:00Z,2025-08-01T05:00:00Z,9/14/2023,59,1,16
4171,Town of West Union Wastewater System Improvements Project,514088,NA,NA,no,Huntington District(LRH),LRH,1,Civil Works,cw,117,Other,10,Other,39.2965,-80.777,4,Planning,13250,2023-07-26T05:00:00Z,2024-02-08T05:00:00Z,9/18/2023,4,1,117
4172,Middle Peninsula State Park,492804,NA,NA,no,Norfolk District(NAO),NAO,5,Environmental,env,122,Environmental (ENV),NA,NA,37.32682,-76.5887,20,Planning,680000,2022-11-01T05:00:00Z,2025-06-01T05:00:00Z,9/19/2023,17,5,122
4173,Mt Zion Water System Improvements Project,514525,NA,NA,no,Huntington District(LRH),LRH,1,Civil Works,cw,117,Other,10,Other,38.828500000000005,-81.13210000000001,4,Planning,13500,2023-07-05T05:00:00Z,2024-05-07T05:00:00Z,9/20/2023,4,1,117
4174,Port of Palacios Turning Basin Improvement CAP,503007,NA,503007,yes,Galveston District(SWG),SWG,1,Civil Works,cw,3,Small Boat Harbors,2,CAP Decision Document,28.69676,-96.23182,1,CAP Feasibility,519000,2023-09-08T05:00:00Z,2025-10-14T05:00:00Z,9/22/2023,36,1,3
4191,Broward County Water Preserve Areas (BCWPA),114627,NA,NA,no,Jacksonville District(SAJ),SAJ,1,Civil Works,cw,6,Aquatic Ecosystem Restoration,5,Validation,26.023529999999997,-80.44077999999999,5,Pre-Construction Engineering and Design (PED),281506000,2006-01-01T05:00:00Z,2025-03-01T05:00:00Z,9/26/2023,27,1,6
4211,Ohio Riverfront Cincinnati,112807,NA,NA,no,Louisville District(LRL),LRL,1,Civil Works,cw,7,Recreation,1,General Investigations Feasibility,39.09433,-84.51164,4,Planning,1666000,2023-01-27T05:00:00Z,2025-01-16T05:00:00Z,9/29/2023,5,1,7
4231,Boone Siphon,406129,NA,NA,no,Albuquerque District(SPA),SPA,1,Civil Works,cw,117,Other,NA,NA,31.76332,-106.44209,5,Pre-Construction Engineering and Design (PED),1000000,2019-10-18T05:00:00Z,2024-01-05T05:00:00Z,10/2/2023,31,1,117
4232,NESP Navigation Program,NA,NA,489148,no,Rock Island District(MVR),MVR,1,Civil Works,cw,16,Inland Navigation,10,Other,41.51506,-90.55316,4,Planning,20000000,2020-05-01T05:00:00Z,2035-09-28T05:00:00Z,10/3/2023,12,1,16
4233,FE Walter Dam Re-Evaluation Study,073825,NA,073825,no,Philadelphia District(NAP),NAP,1,Civil Works,cw,1,Inland Flood Risk Management,NA,NA,41.114709999999995,-75.72419,4,Planning,8150000,2019-09-25T05:00:00Z,2027-03-30T05:00:00Z,12/7/2023 3:12 PM,18,1,1
4234,The Hoosic River,503230,NA,503230,no,New York District(NAN),NAN,1,Civil Works,cw,1,Inland Flood Risk Management,1,General Investigations Feasibility,42.69215,-73.10576999999999,4,Planning,3000000,2023-08-22T05:00:00Z,2026-08-21T05:00:00Z,2/22/2024 2:07 PM,16,1,1
4235,Tow Path Park GLFER - Ecosystem Restoration,496543,NA,NA,yes,Buffalo District(LRB),LRB,1,Civil Works,cw,6,Aquatic Ecosystem Restoration,2,CAP Decision Document,41.407779999999995,-84.04952999999999,1,CAP Feasibility,900000,2023-05-01T05:00:00Z,2025-11-01T05:00:00Z,10/4/2023,1,1,6
4251,"Riverton, Chattanooga Streambank Stabilization",496378,NA,NA,yes,Nashville District(LRN),LRN,1,Civil Works,cw,117,Other,2,CAP Decision Document,35.097249999999995,-85.26147,1,CAP Feasibility,100000,2023-07-11T05:00:00Z,2025-03-28T05:00:00Z,10/10/2023,6,1,117
4271,Test20231016,NA,NA,NA,no,Baltimore District(NAB),NAB,1,Civil Works,cw,4,Coastal Storm Risk Management,1,General Investigations Feasibility,37.16032,-76.15723,4,Planning,300000,2023-10-16T05:00:00Z,2026-10-16T05:00:00Z,10/16/2023,14,1,4
4272,Tenakill Brook,501937,NA,NA,yes,New York District(NAN),NAN,1,Civil Works,cw,1,Inland Flood Risk Management,2,CAP Decision Document,40.948196,73.964064,1,CAP Feasibility,1500000,2023-09-01T05:00:00Z,2024-07-31T05:00:00Z,10/18/2023,16,1,1
4273,Carpinteria Shoreline,494231,NA,NA,yes,Los Angeles District(SPL),SPL,1,Civil Works,cw,4,Coastal Storm Risk Management,2,CAP Decision Document,34.3909,-119.52147,1,CAP Feasibility,2350000,2020-11-25T05:00:00Z,2025-11-12T05:00:00Z,10/19/2023,33,1,4
4274,Yolo Bypass Comprehensive Study,499690,NA,NA,no,Sacramento District(SPK),SPK,1,Civil Works,cw,101,Comprehensive Study,NA,NA,38.52735,-121.60835,4,Planning,13800000,2023-10-18T05:00:00Z,2029-03-21T05:00:00Z,5/9/2024,32,1,101
4275,Pennsboro Wastewater Collection System Improvements,515455,NA,076285,no,Huntington District(LRH),LRH,1,Civil Works,cw,117,Other,10,Other,39.2865,-80.9672,4,Planning,15000,2023-09-28T05:00:00Z,2024-05-06T05:00:00Z,10/23/2023,4,1,117
4276,Wayne Wastewater Treatment Plant Upgrades,515446,NA,014183,no,Huntington District(LRH),LRH,1,Civil Works,cw,117,Other,NA,NA,38.1346,-82.2626,4,Planning,15000,2023-09-28T05:00:00Z,2024-05-15T05:00:00Z,10/24/2023,4,1,117
4277,City of Norfolk CSRM,504518,NA,NA,no,Norfolk District(NAO),NAO,1,Civil Works,cw,4,Coastal Storm Risk Management,1,General Investigations Feasibility,36.85641,-76.27962,6,Construction,2660532000,2023-10-16T05:00:00Z,2032-10-16T05:00:00Z,10/24/2023,17,1,4
4278,RIO SALADO OESTE ECOSYSTEM RESTORATION PROJECT,507954,NA,NA,no,Los Angeles District(SPL),SPL,1,Civil Works,cw,6,Aquatic Ecosystem Restoration,4,General Re-evaluation,33.40789,-112.15149,4,Planning,1,2023-07-03T05:00:00Z,2024-01-25T05:00:00Z,10/24/2023,33,1,6
4279,TEST Wild Rice Habitat Redevelopment,999999,NA,999999,no,St. Paul District(MVP),MVP,5,Environmental,env,122,Environmental (ENV),NA,NA,44.37372,-91.99724,20,Planning,500,2023-10-24T05:00:00Z,2023-10-27T05:00:00Z,10/24/2023,11,5,122
4280,Reedy Middle Fork Water Extension Project,515576,NA,NA,no,Huntington District(LRH),LRH,1,Civil Works,cw,117,Other,10,Other,38.53571,-81.25296999999999,4,Planning,14500,2023-08-30T05:00:00Z,2024-05-01T05:00:00Z,10/26/2023,4,1,117
4281,Brandywine Creek Ecosystem Restoration,470786,NA,NA,yes,Philadelphia District(NAP),NAP,1,Civil Works,cw,6,Aquatic Ecosystem Restoration,2,CAP Decision Document,39.76848,-75.56233999999999,1,CAP Feasibility,1700000,2024-02-05T05:00:00Z,2026-02-05T05:00:00Z,10/27/2023,18,1,6
4291,"City of League City, TX",479841,NA,NA,yes,Galveston District(SWG),SWG,1,Civil Works,cw,1,Inland Flood Risk Management,2,CAP Decision Document,29.51897,-95.098,1,CAP Feasibility,1213000,2024-01-16T05:00:00Z,2025-07-08T05:00:00Z,11/6/2023,36,1,1
4292,Sacramento River Bank Protection Project,510868,NA,NA,no,Sacramento District(SPK),SPK,1,Civil Works,cw,1,Inland Flood Risk Management,10,Other,38.562259999999995,-121.51943,5,Pre-Construction Engineering and Design (PED),2600000,2023-10-02T05:00:00Z,2025-10-31T05:00:00Z,11/6/2023,32,1,1
4293,Whippany River,503763,NA,503763,no,New York District(NAN),NAN,1,Civil Works,cw,1,Inland Flood Risk Management,1,General Investigations Feasibility,40.795100000000005,-74.48765,4,Planning,3000000,2023-09-21T05:00:00Z,2026-09-18T05:00:00Z,3/29/2024 8:35 PM,16,1,1
4311,"NESP Lock and Dam 25 New 1,200 ft Lock",508104,NA,010315,no,Rock Island District(MVR),MVR,1,Civil Works,cw,16,Inland Navigation,NA,NA,39.002469999999995,-90.6926,5,Pre-Construction Engineering and Design (PED),125000000,2022-04-04T05:00:00Z,2026-06-26T05:00:00Z,11/14/2023,12,1,16
4312,Broomstraw Road Waterline Extension Project Section 340,514520,NA,014183,no,Huntington District(LRH),LRH,1,Civil Works,cw,117,Other,10,Other,37.704609999999995,-80.97310999999999,4,Planning,15000,2023-06-26T05:00:00Z,2024-05-08T05:00:00Z,11/14/2023,4,1,117
4313,Augustine FPMS,488340,NA,NA,no,Los Angeles District(SPL),SPL,1,Civil Works,cw,1,Inland Flood Risk Management,10,Other,33.64964,-116.19192,4,Planning,185000,2023-01-01T05:00:00Z,2024-09-01T05:00:00Z,11/15/2023,33,1,1
4314,"Waccamaw River, SC (FRM)",493919,NA,NA,no,Charleston District(SAC),SAC,1,Civil Works,cw,1,Inland Flood Risk Management,1,General Investigations Feasibility,33.836,79.04780000000001,4,Planning,3900000,2022-08-19T05:00:00Z,2026-08-19T05:00:00Z,11/16/2023,26,1,1
4331,LaGrange New 1200-Foot Lock,505374,NA,NA,no,Rock Island District(MVR),MVR,1,Civil Works,cw,16,Inland Navigation,NA,NA,39.95536,-90.52507,5,Pre-Construction Engineering and Design (PED),70000000,2022-10-01T05:00:00Z,2026-10-01T05:00:00Z,11/20/2023,12,1,16
4332,"ESPANOLA VALLEY, NM RIO GRANDE AND TRIBUTARIES ECOSYSTEM RESTORATION",480163,NA,NA,no,Albuquerque District(SPA),SPA,1,Civil Works,cw,117,Other,10,Other,36.04147,-106.08742,5,Pre-Construction Engineering and Design (PED),6000000,2022-11-09T05:00:00Z,2026-12-31T05:00:00Z,11/20/2023,31,1,117
4351,"Little Wood River, Gooding, Idaho",153050,NA,NA,yes,Walla Walla District(NWW),NWW,1,Civil Works,cw,1,Inland Flood Risk Management,2,CAP Decision Document,42.5619,-114.4247,2,CAP Design and Construction,37500000,2024-03-28T05:00:00Z,2027-12-31T05:00:00Z,6/7/2024,23,1,1
4352,LRD Quality Objectives,NA,NA,NA,no,Detroit District(LRE),LRE,1,Civil Works,cw,116,Multi Objective,10,Other,42.33,-83.045,6,Construction,1,2021-03-01T05:00:00Z,2024-03-01T05:00:00Z,11/24/2023,3,1,116
4371,Grand Isle and Vicinity Beach Erosion and Hurricane Protection,505123,NA,NA,no,New Orleans District(MVN),MVN,1,Civil Works,cw,4,Coastal Storm Risk Management,4,General Re-evaluation,29.22638,-89.98901,4,Planning,3200000,2023-02-03T05:00:00Z,2026-02-03T05:00:00Z,11/28/2023,10,1,4
4372,"San Joaquin River Basin, Lower San Joaquin River, California",475448,NA,NA,no,Sacramento District(SPK),SPK,1,Civil Works,cw,1,Inland Flood Risk Management,NA,NA,37.956219999999995,-121.29335,5,Pre-Construction Engineering and Design (PED),1,2018-06-15T05:00:00Z,2035-06-26T05:00:00Z,12/1/2023,32,1,1
4373,Lafitte Area Flood and Coastal Storm Risk Management Feasibility Study,501503,NA,NA,no,New Orleans District(MVN),MVN,1,Civil Works,cw,4,Coastal Storm Risk Management,1,General Investigations Feasibility,29.697000000000003,-90.09922,4,Planning,3200000,2023-08-31T05:00:00Z,2026-08-31T05:00:00Z,11/29/2023,10,1,4
4374,Test primary,NA,NA,158000,yes,Albuquerque District(SPA),SPA,1,Civil Works,cw,6,Aquatic Ecosystem Restoration,2,CAP Decision Document,44.36052,-122.84845,1,CAP Feasibility,598000,2022-11-01T05:00:00Z,2023-10-04T05:00:00Z,11/29/2023,31,1,6
4375,Tennessee Tombigbee and Black Warrior Tombigbee Waterway Navigation Improvement Study,485386,NA,NA,no,Mobile District(SAM),SAM,1,Civil Works,cw,16,Inland Navigation,1,General Investigations Feasibility,33.255919999999996,-87.1875,4,Planning,11000000,2022-06-13T05:00:00Z,2028-05-15T05:00:00Z,11/29/2023,28,1,16
4391,"Middle Rio Grande Flood Protection Project, Bernalillo to Belen, Mountain View Unit",503613,NA,NA,no,Albuquerque District(SPA),SPA,1,Civil Works,cw,117,Other,4,General Re-evaluation,34.969809999999995,-106.68892,5,Pre-Construction Engineering and Design (PED),1,2023-06-13T05:00:00Z,2025-12-31T05:00:00Z,12/4/2023,31,1,117
4411,Meldahl Locks and Dam - Main lock chamber concrete sill repair,114220,NA,114220,no,Huntington District(LRH),LRH,1,Civil Works,cw,16,Inland Navigation,NA,NA,38.797963,-84.16848499999999,7,Operations and Maintenance,1,NA,NA,12/11/2023,4,1,16
4412,Boyd County Economic Development Site Sewer Project,510614,NA,075523,no,Huntington District(LRH),LRH,1,Civil Works,cw,117,Other,10,Other,38.3734,-82.7082,4,Planning,15000,2023-01-30T05:00:00Z,2024-04-24T05:00:00Z,12/11/2023,4,1,117
4413,New Orleans to Venice NOV10a,504469,NA,504469,no,Memphis District(MVM),MVM,1,Civil Works,cw,4,Coastal Storm Risk Management,NA,NA,29.48249,-89.69821999999999,5,Pre-Construction Engineering and Design (PED),1500000,2024-01-02T05:00:00Z,2025-08-01T05:00:00Z,12/11/2023,9,1,4
4414,CAP 206 Polk Swamp Dorchester County SC,402953,NA,NA,yes,Charleston District(SAC),SAC,1,Civil Works,cw,6,Aquatic Ecosystem Restoration,NA,NA,33.16515,-80.59313,2,CAP Design and Construction,2000000,2023-02-15T05:00:00Z,2027-09-30T05:00:00Z,12/11/2023,26,1,6
4415,Boyd County Economic Development Site Water Project,515999,NA,075523,no,Huntington District(LRH),LRH,1,Civil Works,cw,117,Other,NA,NA,38.3734,-82.7082,4,Planning,15000,2023-01-30T05:00:00Z,2024-05-16T05:00:00Z,12/11/2023,4,1,117
4416,Sny Magill Effigy Mounds- NESP Ecosystem Project,511124,NA,NA,no,St. Paul District(MVP),MVP,1,Civil Works,cw,6,Aquatic Ecosystem Restoration,10,Other,42.941469999999995,-91.16558,4,Planning,1,2023-03-29T05:00:00Z,2024-08-31T05:00:00Z,12/11/2023,11,1,6
4417,Greenup Locks and Dam MRER,114217,NA,NA,no,Huntington District(LRH),LRH,1,Civil Works,cw,16,Inland Navigation,10,Other,38.647,-82.85867999999999,4,Planning,3000000,2020-10-01T05:00:00Z,2025-12-22T05:00:00Z,12/11/2023,4,1,16
4431,Rock Cut Lower Dam Overhaul,511596,NA,NA,no,Detroit District(LRE),LRE,1,Civil Works,cw,2,Deep Draft Navigation,NA,NA,46.26456,-84.19120000000001,5,Pre-Construction Engineering and Design (PED),274000,2023-09-21T05:00:00Z,2025-12-08T05:00:00Z,12/14/2023,3,1,2
4451,FY26 Child Development Center,509509,NA,NA,no,Tulsa District(SWT),SWT,2,Military Program,mp,118,Major Construction,NA,NA,35.40724,-97.39037,9,Design,2500000,2023-10-02T05:00:00Z,2024-10-01T05:00:00Z,12/16/2023,38,2,118
4471,Abiquiu Conduit Air Vents Repairs,503211,NA,NA,no,Albuquerque District(SPA),SPA,1,Civil Works,cw,117,Other,10,Other,35.03,-105.29297,7,Operations and Maintenance,520000,NA,NA,12/18/2023,31,1,117
4491,Illinois Waterway Dredged Material Management Plan,462086,NA,NA,no,Rock Island District(MVR),MVR,1,Civil Works,cw,16,Inland Navigation,10,Other,40.704229999999995,-89.56617,4,Planning,450000,2023-10-01T05:00:00Z,2025-09-30T05:00:00Z,12/19/2023,12,1,16
4511,"Liverpool Flowing Side Channel, Navigation Ecosystem Sustainability Program",515735,NA,NA,no,Rock Island District(MVR),MVR,1,Civil Works,cw,6,Aquatic Ecosystem Restoration,10,Other,40.37741,-90.01562,4,Planning,550000,2024-01-06T05:00:00Z,2025-08-31T05:00:00Z,12/20/2023,12,1,6
4531,"Disposition Study Optima Lake, Oklahoma",498532,NA,NA,no,Tulsa District(SWT),SWT,1,Civil Works,cw,1,Inland Flood Risk Management,10,Other,36.65658,-101.13756,7,Operations and Maintenance,50000,2023-01-01T05:00:00Z,2024-12-31T05:00:00Z,1/12/2024,38,1,1
4532,"Disposition Study Estelline Springs Experimental Project, Texas",511714,NA,NA,no,Tulsa District(SWT),SWT,1,Civil Works,cw,117,Other,10,Other,34.54785,-100.42105,7,Operations and Maintenance,50000,2023-01-01T05:00:00Z,2024-12-31T05:00:00Z,1/12/2024,38,1,117
4551,La Joya Phase V,517062,NA,014095,no,Albuquerque District(SPA),SPA,1,Civil Works,cw,117,Other,10,Other,34.370334,-106.837974,5,Pre-Construction Engineering and Design (PED),250000,2020-09-30T05:00:00Z,2024-03-31T05:00:00Z,1/2/2024,31,1,117
4552,Turley-Manzanarez,479900,NA,014095,no,Albuquerque District(SPA),SPA,1,Civil Works,cw,117,Other,10,Other,36.759394,-107.745769,5,Pre-Construction Engineering and Design (PED),250000,2021-09-01T05:00:00Z,2024-03-31T05:00:00Z,1/2/2024,31,1,117
4553,Rio Chama Acequia Association: Chamita Diversion,513595,NA,014095,no,Albuquerque District(SPA),SPA,1,Civil Works,cw,117,Other,10,Other,36.084281,-106.125692,5,Pre-Construction Engineering and Design (PED),250000,2023-10-16T05:00:00Z,2025-03-31T05:00:00Z,1/2/2024,31,1,117
4571,S205 Merizo FRM,484634,NA,NA,yes,Honolulu District(POH),POH,1,Civil Works,cw,1,Inland Flood Risk Management,2,CAP Decision Document,13.25685,-215.31114,1,CAP Feasibility,1507000,2023-08-19T05:00:00Z,2025-08-29T05:00:00Z,1/5/2024,25,1,1
4591,Lower Santa Cruz River CAP 205,493382,NA,NA,yes,Los Angeles District(SPL),SPL,1,Civil Works,cw,1,Inland Flood Risk Management,2,CAP Decision Document,32.752,-111.554,1,CAP Feasibility,2200000,2024-04-01T05:00:00Z,2026-04-01T05:00:00Z,1/10/2024,33,1,1
4611,"Mill Creek, OH. Flood Protection Project",112758,NA,112758,no,Louisville District(LRL),LRL,1,Civil Works,cw,1,Inland Flood Risk Management,NA,NA,39.12442,-84.54312,6,Construction,3300000,1999-01-01T05:00:00Z,2026-01-01T05:00:00Z,1/16/2024,5,1,1
4631,TEST JAN28,111000,NA,NA,no,Baltimore District(NAB),NAB,1,Civil Works,cw,6,Aquatic Ecosystem Restoration,1,General Investigations Feasibility,38.82259,-76.37695,7,Operations and Maintenance,14000,NA,NA,1/29/2024,14,1,6
4651,Pool 18 Forestry,491458,NA,NA,no,Rock Island District(MVR),MVR,1,Civil Works,cw,6,Aquatic Ecosystem Restoration,10,Other,41.09824,-90.96078,4,Planning,2000000,2023-11-30T05:00:00Z,2026-11-30T05:00:00Z,2/6/2024,12,1,6
4675,City of Emporia CAP 205 Flood Risk Management,491146,NA,NA,yes,Norfolk District(NAO),NAO,1,Civil Works,cw,1,Inland Flood Risk Management,2,CAP Decision Document,36.68983,-77.5412,1,CAP Feasibility,100000,2024-03-31T05:00:00Z,2025-09-30T05:00:00Z,2/8/2024,17,1,1
4676,Key Biscayne Coastal Storm Risk Management Feasibility Study,506142,NA,NA,no,Jacksonville District(SAJ),SAJ,1,Civil Works,cw,4,Coastal Storm Risk Management,1,General Investigations Feasibility,25.68999,-80.16367,4,Planning,3000000,2023-11-01T05:00:00Z,2026-10-30T05:00:00Z,2/8/2024,27,1,4
4678,Test A Project 2,000000,Sub ID Test Text,000000,no,Alaska District(POA),POA,1,Civil Works,cw,6,Aquatic Ecosystem Restoration,NA,NA,40.98385,-109.46153,6,Construction,15000000,2030-02-14T05:00:00Z,2033-02-01T05:00:00Z,2/13/2024,24,1,6
4680,Mordecai Island CAP 1135 D&I,109377,NA,NA,yes,Philadelphia District(NAP),NAP,1,Civil Works,cw,6,Aquatic Ecosystem Restoration,2,CAP Decision Document,39.55743,-74.25228,2,CAP Design and Construction,796100,2024-02-05T05:00:00Z,2030-07-31T05:00:00Z,2/9/2024,18,1,6
4682,Arkabutla DSMS,496394,NA,NA,no,Vicksburg District(MVK),MVK,1,Civil Works,cw,1,Inland Flood Risk Management,10,Other,34.759214,-90.123745,4,Planning,3000000,2023-06-27T05:00:00Z,2025-04-08T05:00:00Z,2/13/2024,8,1,1
4683,Christiansted Harbor Navigation Improvements,501274,NA,NA,no,Jacksonville District(SAJ),SAJ,1,Civil Works,cw,2,Deep Draft Navigation,1,General Investigations Feasibility,17.74681,-64.69969,4,Planning,3000000,2023-10-31T05:00:00Z,2026-10-31T05:00:00Z,2/13/2024,27,1,2
4684,Lakewood Park EI - Culvert 1 Replacement,497096,NA,NA,no,Savannah District(SAS),SAS,1,Civil Works,cw,117,Other,10,Other,33.70051,-84.39107299999999,5,Pre-Construction Engineering and Design (PED),3000000,2024-01-19T05:00:00Z,2025-12-31T05:00:00Z,2/14/2024,29,1,117
4691,Modified Central City - Programmatic,100573,PGM,NA,no,Ft. Worth District(SWF),SWF,1,Civil Works,cw,1,Inland Flood Risk Management,10,Other,32.76126,-97.33213,6,Construction,1137430000,2008-09-05T05:00:00Z,2033-02-11T05:00:00Z,5/31/2024,35,1,1
4692,Daytona Beach Flood Control (Inland FRM),463767,NA,NA,no,Jacksonville District(SAJ),SAJ,1,Civil Works,cw,1,Inland Flood Risk Management,1,General Investigations Feasibility,29.19425,-81.023703,4,Planning,3000000,2024-01-22T05:00:00Z,2027-01-22T05:00:00Z,2/20/2024,27,1,1
4711,Patoka Lake WCM Update,498091,NA,498091,no,Louisville District(LRL),LRL,1,Civil Works,cw,1,Inland Flood Risk Management,10,Other,38.43602,-86.7052,4,Planning,250000,2023-01-01T05:00:00Z,2025-01-31T05:00:00Z,2/26/2024,5,1,1
4731,Columbia River Turning Basins,583335,NA,NA,no,Portland District(NWP),NWP,1,Civil Works,cw,2,Deep Draft Navigation,1,General Investigations Feasibility,46.05951,-122.87962,4,Planning,2200000,2022-09-01T05:00:00Z,2025-09-01T05:00:00Z,2/29/2024,21,1,2
4732,Modified Central City - North Bypass Channel,100573,BCN,NA,no,Ft. Worth District(SWF),SWF,1,Civil Works,cw,1,Inland Flood Risk Management,NA,NA,32.76126,-97.33213,6,Construction,1137430000,2008-09-05T05:00:00Z,2033-02-11T05:00:00Z,5/31/2024,35,1,1
4751,Cedar Bayou Navigation Improvement Project,114375,NA,NA,no,Galveston District(SWG),SWG,1,Civil Works,cw,16,Inland Navigation,NA,NA,29.690949999999997,-94.92062,6,Construction,55736199,2021-09-05T05:00:00Z,2025-01-21T05:00:00Z,3/5/2024,36,1,16
4771,Town of Martin,112472,112472,NA,no,Huntington District(LRH),LRH,1,Civil Works,cw,1,Inland Flood Risk Management,NA,NA,37.5673,-82.7557,6,Construction,80000000,2020-10-23T05:00:00Z,2024-04-30T05:00:00Z,3/18/2024,4,1,1
4772,Dickenson Co 202,112491,NA,NA,no,Huntington District(LRH),LRH,1,Civil Works,cw,117,Other,1,General Investigations Feasibility,37.131015999999995,-82.344962,5,Pre-Construction Engineering and Design (PED),103843000,2003-03-03T05:00:00Z,2028-09-29T05:00:00Z,3/19/2024,4,1,117
4773,Waitsburg 205 Flood Risk Management,445802,NA,NA,yes,Walla Walla District(NWW),NWW,1,Civil Works,cw,1,Inland Flood Risk Management,2,CAP Decision Document,46.28955,-118.34335,1,CAP Feasibility,635000,2017-12-14T05:00:00Z,2024-12-31T05:00:00Z,3/19/2024,23,1,1
4792,FY24 Army Reserve Heavy Metal Mitigation,511803,NA,511803,no,Louisville District(LRL),LRL,5,Environmental,env,122,Environmental (ENV),NA,NA,38.71338,-77.14817,22,Solicitation,60000,2024-03-25T05:00:00Z,2024-04-29T05:00:00Z,3/20/2024,5,5,122
4812,FY24 ARIMD Disposal Lead Dust Abatement Contract,517885,NA,517885,no,Louisville District(LRL),LRL,5,Environmental,env,122,Environmental (ENV),NA,NA,38.71297,-77.14958,22,Solicitation,30000,2024-04-05T05:00:00Z,2024-05-03T05:00:00Z,3/27/2024,5,5,122
4853,"West River, Weston, VT PL84-99 Emergency Repairs",516066,NA,NA,no,New England District(NAE),NAE,1,Civil Works,cw,1,Inland Flood Risk Management,10,Other,43.29132,-72.79455999999999,5,Pre-Construction Engineering and Design (PED),120000,2024-02-27T05:00:00Z,2024-04-29T05:00:00Z,3/29/2024,15,1,1
4854,Magnolia Levee Dam Safety Modification,513893,NA,NA,no,Huntington District(LRH),LRH,1,Civil Works,cw,1,Inland Flood Risk Management,NA,NA,40.651509999999995,-81.29843,5,Pre-Construction Engineering and Design (PED),1140963,2022-11-14T05:00:00Z,2025-03-07T05:00:00Z,3/29/2024,4,1,1
4855,Charleston Tidal and Inland Related Flood Risk Management Study,496373,NA,NA,no,Charleston District(SAC),SAC,1,Civil Works,cw,4,Coastal Storm Risk Management,5,Validation,32.73739,-79.91056999999999,4,Planning,10000,2022-06-01T05:00:00Z,2022-10-01T05:00:00Z,8/1/2024,26,1,4
4892,Acquisition Management Complex-V,519675,NA,NA,no,Louisville District(LRL),LRL,2,Military Program,mp,118,Major Construction,NA,NA,39.8233,-84.04713,9,Design,20000000,2024-10-07T05:00:00Z,2026-02-02T05:00:00Z,4/10/2024,5,2,118
4912,Dallas Floodway Extension,476460,NA,NA,no,Ft. Worth District(SWF),SWF,1,Civil Works,cw,1,Inland Flood Risk Management,4,General Re-evaluation,32.67637,-96.63574,5,Pre-Construction Engineering and Design (PED),15000000,2021-09-29T05:00:00Z,2028-06-22T05:00:00Z,4/17/2024,35,1,1
4913,John Day Mitigation Validation Report,515590,NA,NA,no,Portland District(NWP),NWP,1,Civil Works,cw,117,Other,9,Limited Re-evaluation,45.6443,-121.57,4,Planning,3000000,2022-10-07T05:00:00Z,2027-04-15T05:00:00Z,4/17/2024,21,1,117
4914,"Bridgeport Harbor and Blackrock Harbor, CT (DMMP/EA)",107600,NA,NA,no,New England District(NAE),NAE,1,Civil Works,cw,2,Deep Draft Navigation,10,Other,41.16102,-73.17719,4,Planning,1243880,2024-04-01T05:00:00Z,2025-04-01T05:00:00Z,4/17/2024,15,1,2
4952,Modified Central City - South Bypass Channel,100573,BCS,NA,no,Ft. Worth District(SWF),SWF,1,Civil Works,cw,1,Inland Flood Risk Management,NA,NA,32.76126,-97.3322,6,Construction,1137430000,2008-09-05T05:00:00Z,2032-02-11T05:00:00Z,5/31/2024,35,1,1
4953,Modified Central City - Isolation Gates & Pump Station,100573,GATES,NA,no,Ft. Worth District(SWF),SWF,1,Civil Works,cw,1,Inland Flood Risk Management,NA,NA,32.76126,-97.33213,6,Construction,1137430000,2008-09-05T05:00:00Z,2033-02-11T05:00:00Z,5/31/2024,35,1,1
4954,Modified Central City - Ham Branch Aquatic Habitat Mitigation,100573,HAM-M,NA,no,Ft. Worth District(SWF),SWF,1,Civil Works,cw,1,Inland Flood Risk Management,NA,NA,32.76126,-97.33213,6,Construction,1137430000,2008-09-05T05:00:00Z,2033-02-11T05:00:00Z,5/31/2024,35,1,1
4972,Modified Central City - Rockwood Park/University Drive Valley Storage,100573,RW / UD,NA,no,Ft. Worth District(SWF),SWF,1,Civil Works,cw,1,Inland Flood Risk Management,NA,NA,32.76126,-97.33213,6,Construction,1137430000,2005-09-05T05:00:00Z,2033-02-11T05:00:00Z,5/31/2024,35,1,1
4992,Sabine Pass to Galveston Bay - Orange PACR,492048,492048.2.21.2,NA,no,Galveston District(SWG),SWG,1,Civil Works,cw,4,Coastal Storm Risk Management,5,Validation,30.08959,-93.74496,5,Pre-Construction Engineering and Design (PED),490074000,2018-10-10T05:00:00Z,2027-05-17T05:00:00Z,4/26/2024,36,1,4
5012,Pequest River CAP 206,480839,NA,480839,yes,Philadelphia District(NAP),NAP,1,Civil Works,cw,6,Aquatic Ecosystem Restoration,2,CAP Decision Document,40.955397,-74.809375,1,CAP Feasibility,2000000,2024-08-01T05:00:00Z,2027-08-02T05:00:00Z,4/29/2024,18,1,6
5033,Tenakill Brook Section 205 Feasibility Study,501937,501937,501937,yes,New York District(NAN),NAN,1,Civil Works,cw,1,Inland Flood Risk Management,2,CAP Decision Document,40.949963,-73.96436,1,CAP Feasibility,2000000,2023-07-10T05:00:00Z,2025-08-31T05:00:00Z,4/30/2024,16,1,1
5052,IRI North Jetty Repair,462145,NA,NA,no,Philadelphia District(NAP),NAP,1,Civil Works,cw,16,Inland Navigation,10,Other,38.60896,-75.06137,5,Pre-Construction Engineering and Design (PED),750000,2024-05-01T05:00:00Z,2025-05-01T05:00:00Z,5/1/2024,18,1,16
5132,Christina River DMMP,470787,NA,NA,no,Philadelphia District(NAP),NAP,1,Civil Works,cw,2,Deep Draft Navigation,1,General Investigations Feasibility,39.719069999999995,-75.52208,4,Planning,12000,2024-05-07T05:00:00Z,2025-01-24T05:00:00Z,5/14/2024,18,1,2
